<?xml version="1.0" encoding="UTF-8" standalone="yes"?>
<ciudad xmlns="http://www.um.es/ciudad" Nombre="Vitoria-Gasteiz" Latitud="42.8467" Longitud="-2.67164">
    <id>644b0ad7-cb45-4ff0-9d1d-0d15d831a568</id>
    <aparcamientos>
        <id>628ca35d5d03cf4ffab21ac1</id>
        <direccion>PORTAL DE CASTILLA</direccion>
        <latitud>42.84102251744916</latitud>
        <longitud>-2.687480002757895</longitud>
        <numValoraciones>0</numValoraciones>
        <calificacionMedia>0.0</calificacionMedia>
        <url>http://localhost:8082/api/ciudades/644b0ad7-cb45-4ff0-9d1d-0d15d831a568/aparcamientos/628ca35d5d03cf4ffab21ac1</url>
    </aparcamientos>
    <aparcamientos>
        <id>628ca35d5d03cf4ffab21ac2</id>
        <direccion>SAN ANTONIO</direccion>
        <latitud>42.84232373386372</latitud>
        <longitud>-2.674452477549761</longitud>
        <numValoraciones>0</numValoraciones>
        <calificacionMedia>0.0</calificacionMedia>
        <url>http://localhost:8082/api/ciudades/644b0ad7-cb45-4ff0-9d1d-0d15d831a568/aparcamientos/628ca35d5d03cf4ffab21ac2</url>
    </aparcamientos>
    <aparcamientos>
        <id>628ca35d5d03cf4ffab21ac3</id>
        <direccion>SAN ANTONIO</direccion>
        <latitud>42.84232366126057</latitud>
        <longitud>-2.674554601659116</longitud>
        <numValoraciones>0</numValoraciones>
        <calificacionMedia>0.0</calificacionMedia>
        <url>http://localhost:8082/api/ciudades/644b0ad7-cb45-4ff0-9d1d-0d15d831a568/aparcamientos/628ca35d5d03cf4ffab21ac3</url>
    </aparcamientos>
    <aparcamientos>
        <id>628ca35d5d03cf4ffab21ac4</id>
        <direccion>HERACLIO FOURNIER</direccion>
        <latitud>42.83898313742732</latitud>
        <longitud>-2.666454137266225</longitud>
        <numValoraciones>0</numValoraciones>
        <calificacionMedia>0.0</calificacionMedia>
        <url>http://localhost:8082/api/ciudades/644b0ad7-cb45-4ff0-9d1d-0d15d831a568/aparcamientos/628ca35d5d03cf4ffab21ac4</url>
    </aparcamientos>
    <aparcamientos>
        <id>628ca35d5d03cf4ffab21ac5</id>
        <direccion>VENEZUELA</direccion>
        <latitud>42.85814257917033</latitud>
        <longitud>-2.677645211974379</longitud>
        <numValoraciones>0</numValoraciones>
        <calificacionMedia>0.0</calificacionMedia>
        <url>http://localhost:8082/api/ciudades/644b0ad7-cb45-4ff0-9d1d-0d15d831a568/aparcamientos/628ca35d5d03cf4ffab21ac5</url>
    </aparcamientos>
    <aparcamientos>
        <id>628ca35d5d03cf4ffab21ac6</id>
        <direccion>REYES CATÓLICOS</direccion>
        <latitud>42.85446413506654</latitud>
        <longitud>-2.667888170402576</longitud>
        <numValoraciones>0</numValoraciones>
        <calificacionMedia>0.0</calificacionMedia>
        <url>http://localhost:8082/api/ciudades/644b0ad7-cb45-4ff0-9d1d-0d15d831a568/aparcamientos/628ca35d5d03cf4ffab21ac6</url>
    </aparcamientos>
    <aparcamientos>
        <id>628ca35d5d03cf4ffab21ac7</id>
        <direccion>MANUEL IRADIER</direccion>
        <latitud>42.84217100788921</latitud>
        <longitud>-2.672098428456089</longitud>
        <numValoraciones>0</numValoraciones>
        <calificacionMedia>0.0</calificacionMedia>
        <url>http://localhost:8082/api/ciudades/644b0ad7-cb45-4ff0-9d1d-0d15d831a568/aparcamientos/628ca35d5d03cf4ffab21ac7</url>
    </aparcamientos>
    <aparcamientos>
        <id>628ca35d5d03cf4ffab21ac8</id>
        <direccion>JOSÉ MARDONES</direccion>
        <latitud>42.84479886307986</latitud>
        <longitud>-2.662615667613877</longitud>
        <numValoraciones>0</numValoraciones>
        <calificacionMedia>0.0</calificacionMedia>
        <url>http://localhost:8082/api/ciudades/644b0ad7-cb45-4ff0-9d1d-0d15d831a568/aparcamientos/628ca35d5d03cf4ffab21ac8</url>
    </aparcamientos>
    <aparcamientos>
        <id>628ca35d5d03cf4ffab21ac9</id>
        <direccion>PZA. AMADEO GARCIA SALAZAR</direccion>
        <latitud>42.83813931330173</latitud>
        <longitud>-2.685809751827131</longitud>
        <numValoraciones>0</numValoraciones>
        <calificacionMedia>0.0</calificacionMedia>
        <url>http://localhost:8082/api/ciudades/644b0ad7-cb45-4ff0-9d1d-0d15d831a568/aparcamientos/628ca35d5d03cf4ffab21ac9</url>
    </aparcamientos>
    <aparcamientos>
        <id>628ca35d5d03cf4ffab21aca</id>
        <direccion>FELIX MARIA SAMANIEGO</direccion>
        <latitud>42.84812171687686</latitud>
        <longitud>-2.677522377547884</longitud>
        <numValoraciones>0</numValoraciones>
        <calificacionMedia>0.0</calificacionMedia>
        <url>http://localhost:8082/api/ciudades/644b0ad7-cb45-4ff0-9d1d-0d15d831a568/aparcamientos/628ca35d5d03cf4ffab21aca</url>
    </aparcamientos>
    <aparcamientos>
        <id>628ca35d5d03cf4ffab21acb</id>
        <direccion>PLAZA SANTA BÁRBARA</direccion>
        <latitud>42.84425030590201</latitud>
        <longitud>-2.667718190694174</longitud>
        <numValoraciones>0</numValoraciones>
        <calificacionMedia>0.0</calificacionMedia>
        <url>http://localhost:8082/api/ciudades/644b0ad7-cb45-4ff0-9d1d-0d15d831a568/aparcamientos/628ca35d5d03cf4ffab21acb</url>
    </aparcamientos>
    <aparcamientos>
        <id>628ca35d5d03cf4ffab21acc</id>
        <direccion>POSTAS</direccion>
        <latitud>42.84549807879204</latitud>
        <longitud>-2.66776091687536</longitud>
        <numValoraciones>0</numValoraciones>
        <calificacionMedia>0.0</calificacionMedia>
        <url>http://localhost:8082/api/ciudades/644b0ad7-cb45-4ff0-9d1d-0d15d831a568/aparcamientos/628ca35d5d03cf4ffab21acc</url>
    </aparcamientos>
    <aparcamientos>
        <id>628ca35d5d03cf4ffab21acd</id>
        <direccion>AVDA. SANTIAGO</direccion>
        <latitud>42.84693605439848</latitud>
        <longitud>-2.66755225977752</longitud>
        <numValoraciones>0</numValoraciones>
        <calificacionMedia>0.0</calificacionMedia>
        <url>http://localhost:8082/api/ciudades/644b0ad7-cb45-4ff0-9d1d-0d15d831a568/aparcamientos/628ca35d5d03cf4ffab21acd</url>
    </aparcamientos>
    <aparcamientos>
        <id>628ca35d5d03cf4ffab21ace</id>
        <direccion>MONSEÑOR ESTENAGA</direccion>
        <latitud>42.85167033185722</latitud>
        <longitud>-2.66858340556283</longitud>
        <numValoraciones>0</numValoraciones>
        <calificacionMedia>0.0</calificacionMedia>
        <url>http://localhost:8082/api/ciudades/644b0ad7-cb45-4ff0-9d1d-0d15d831a568/aparcamientos/628ca35d5d03cf4ffab21ace</url>
    </aparcamientos>
    <aparcamientos>
        <id>628ca35d5d03cf4ffab21acf</id>
        <direccion>SANTA ISABEL</direccion>
        <latitud>42.85532652302046</latitud>
        <longitud>-2.672622017028829</longitud>
        <numValoraciones>0</numValoraciones>
        <calificacionMedia>0.0</calificacionMedia>
        <url>http://localhost:8082/api/ciudades/644b0ad7-cb45-4ff0-9d1d-0d15d831a568/aparcamientos/628ca35d5d03cf4ffab21acf</url>
    </aparcamientos>
    <aparcamientos>
        <id>628ca35d5d03cf4ffab21ad0</id>
        <direccion>AVDA. JUDIMENDI</direccion>
        <latitud>42.84549805185093</latitud>
        <longitud>-2.661478600076663</longitud>
        <numValoraciones>0</numValoraciones>
        <calificacionMedia>0.0</calificacionMedia>
        <url>http://localhost:8082/api/ciudades/644b0ad7-cb45-4ff0-9d1d-0d15d831a568/aparcamientos/628ca35d5d03cf4ffab21ad0</url>
    </aparcamientos>
    <aparcamientos>
        <id>628ca35d5d03cf4ffab21ad1</id>
        <direccion>OLAGUIBEL</direccion>
        <latitud>42.84573177857492</latitud>
        <longitud>-2.665044013266379</longitud>
        <numValoraciones>0</numValoraciones>
        <calificacionMedia>0.0</calificacionMedia>
        <url>http://localhost:8082/api/ciudades/644b0ad7-cb45-4ff0-9d1d-0d15d831a568/aparcamientos/628ca35d5d03cf4ffab21ad1</url>
    </aparcamientos>
    <aparcamientos>
        <id>628ca35d5d03cf4ffab21ad2</id>
        <direccion>OLAGUIBEL</direccion>
        <latitud>42.84647326544316</latitud>
        <longitud>-2.671307095931855</longitud>
        <numValoraciones>0</numValoraciones>
        <calificacionMedia>0.0</calificacionMedia>
        <url>http://localhost:8082/api/ciudades/644b0ad7-cb45-4ff0-9d1d-0d15d831a568/aparcamientos/628ca35d5d03cf4ffab21ad2</url>
    </aparcamientos>
    <aparcamientos>
        <id>628ca35d5d03cf4ffab21ad3</id>
        <direccion>CASTILLO DE QUEJANA</direccion>
        <latitud>42.84282719937252</latitud>
        <longitud>-2.686256132055439</longitud>
        <numValoraciones>0</numValoraciones>
        <calificacionMedia>0.0</calificacionMedia>
        <url>http://localhost:8082/api/ciudades/644b0ad7-cb45-4ff0-9d1d-0d15d831a568/aparcamientos/628ca35d5d03cf4ffab21ad3</url>
    </aparcamientos>
    <aparcamientos>
        <id>628ca35d5d03cf4ffab21ad4</id>
        <direccion>LASCARAY</direccion>
        <latitud>42.8437626884899</latitud>
        <longitud>-2.68144686020766</longitud>
        <numValoraciones>0</numValoraciones>
        <calificacionMedia>0.0</calificacionMedia>
        <url>http://localhost:8082/api/ciudades/644b0ad7-cb45-4ff0-9d1d-0d15d831a568/aparcamientos/628ca35d5d03cf4ffab21ad4</url>
    </aparcamientos>
    <aparcamientos>
        <id>628ca35d5d03cf4ffab21ad5</id>
        <direccion>LUIS HEINZ</direccion>
        <latitud>42.84606681685412</latitud>
        <longitud>-2.679142405192092</longitud>
        <numValoraciones>0</numValoraciones>
        <calificacionMedia>0.0</calificacionMedia>
        <url>http://localhost:8082/api/ciudades/644b0ad7-cb45-4ff0-9d1d-0d15d831a568/aparcamientos/628ca35d5d03cf4ffab21ad5</url>
    </aparcamientos>
    <aparcamientos>
        <id>628ca35d5d03cf4ffab21ad6</id>
        <direccion>FLORIDA</direccion>
        <latitud>42.84355558961875</latitud>
        <longitud>-2.675492675136378</longitud>
        <numValoraciones>0</numValoraciones>
        <calificacionMedia>0.0</calificacionMedia>
        <url>http://localhost:8082/api/ciudades/644b0ad7-cb45-4ff0-9d1d-0d15d831a568/aparcamientos/628ca35d5d03cf4ffab21ad6</url>
    </aparcamientos>
    <aparcamientos>
        <id>628ca35d5d03cf4ffab21ad7</id>
        <direccion>SAN ANTONIO</direccion>
        <latitud>42.84507497906576</latitud>
        <longitud>-2.674198581183406</longitud>
        <numValoraciones>0</numValoraciones>
        <calificacionMedia>0.0</calificacionMedia>
        <url>http://localhost:8082/api/ciudades/644b0ad7-cb45-4ff0-9d1d-0d15d831a568/aparcamientos/628ca35d5d03cf4ffab21ad7</url>
    </aparcamientos>
    <aparcamientos>
        <id>628ca35d5d03cf4ffab21ad8</id>
        <direccion>SAN ANTONIO</direccion>
        <latitud>42.84415600642654</latitud>
        <longitud>-2.674309701454223</longitud>
        <numValoraciones>0</numValoraciones>
        <calificacionMedia>0.0</calificacionMedia>
        <url>http://localhost:8082/api/ciudades/644b0ad7-cb45-4ff0-9d1d-0d15d831a568/aparcamientos/628ca35d5d03cf4ffab21ad8</url>
    </aparcamientos>
    <aparcamientos>
        <id>628ca35d5d03cf4ffab21ad9</id>
        <direccion>FLORIDA</direccion>
        <latitud>42.841852076614</latitud>
        <longitud>-2.656096848250091</longitud>
        <numValoraciones>0</numValoraciones>
        <calificacionMedia>0.0</calificacionMedia>
        <url>http://localhost:8082/api/ciudades/644b0ad7-cb45-4ff0-9d1d-0d15d831a568/aparcamientos/628ca35d5d03cf4ffab21ad9</url>
    </aparcamientos>
    <aparcamientos>
        <id>628ca35d5d03cf4ffab21ada</id>
        <direccion>VOLUNTARIA ENTREGA</direccion>
        <latitud>42.86665894964062</latitud>
        <longitud>-2.679943479829234</longitud>
        <numValoraciones>0</numValoraciones>
        <calificacionMedia>0.0</calificacionMedia>
        <url>http://localhost:8082/api/ciudades/644b0ad7-cb45-4ff0-9d1d-0d15d831a568/aparcamientos/628ca35d5d03cf4ffab21ada</url>
    </aparcamientos>
    <aparcamientos>
        <id>628ca35d5d03cf4ffab21adb</id>
        <direccion>CUBA</direccion>
        <latitud>42.85817926696316</latitud>
        <longitud>-2.680125402590274</longitud>
        <numValoraciones>0</numValoraciones>
        <calificacionMedia>0.0</calificacionMedia>
        <url>http://localhost:8082/api/ciudades/644b0ad7-cb45-4ff0-9d1d-0d15d831a568/aparcamientos/628ca35d5d03cf4ffab21adb</url>
    </aparcamientos>
    <aparcamientos>
        <id>628ca35d5d03cf4ffab21adc</id>
        <direccion>LOS HERRAN</direccion>
        <latitud>42.85304967252524</latitud>
        <longitud>-2.667003485918436</longitud>
        <numValoraciones>0</numValoraciones>
        <calificacionMedia>0.0</calificacionMedia>
        <url>http://localhost:8082/api/ciudades/644b0ad7-cb45-4ff0-9d1d-0d15d831a568/aparcamientos/628ca35d5d03cf4ffab21adc</url>
    </aparcamientos>
    <aparcamientos>
        <id>628ca35d5d03cf4ffab21add</id>
        <direccion>LOS ASTRÓNOMOS</direccion>
        <latitud>42.84564701747841</latitud>
        <longitud>-2.656367601930838</longitud>
        <numValoraciones>0</numValoraciones>
        <calificacionMedia>0.0</calificacionMedia>
        <url>http://localhost:8082/api/ciudades/644b0ad7-cb45-4ff0-9d1d-0d15d831a568/aparcamientos/628ca35d5d03cf4ffab21add</url>
    </aparcamientos>
    <aparcamientos>
        <id>628ca35d5d03cf4ffab21ade</id>
        <direccion>VICENTE GOICOECHEA</direccion>
        <latitud>42.84677962179862</latitud>
        <longitud>-2.676247286514335</longitud>
        <numValoraciones>0</numValoraciones>
        <calificacionMedia>0.0</calificacionMedia>
        <url>http://localhost:8082/api/ciudades/644b0ad7-cb45-4ff0-9d1d-0d15d831a568/aparcamientos/628ca35d5d03cf4ffab21ade</url>
    </aparcamientos>
    <aparcamientos>
        <id>628ca35d5d03cf4ffab21adf</id>
        <direccion>SAN IGNACIO DE LOYOLA</direccion>
        <latitud>42.85314478281198</latitud>
        <longitud>-2.672906385081759</longitud>
        <numValoraciones>0</numValoraciones>
        <calificacionMedia>0.0</calificacionMedia>
        <url>http://localhost:8082/api/ciudades/644b0ad7-cb45-4ff0-9d1d-0d15d831a568/aparcamientos/628ca35d5d03cf4ffab21adf</url>
    </aparcamientos>
    <aparcamientos>
        <id>628ca35d5d03cf4ffab21ae0</id>
        <direccion>CHILE</direccion>
        <latitud>42.85190357862982</latitud>
        <longitud>-2.684602055302639</longitud>
        <numValoraciones>0</numValoraciones>
        <calificacionMedia>0.0</calificacionMedia>
        <url>http://localhost:8082/api/ciudades/644b0ad7-cb45-4ff0-9d1d-0d15d831a568/aparcamientos/628ca35d5d03cf4ffab21ae0</url>
    </aparcamientos>
    <aparcamientos>
        <id>628ca35d5d03cf4ffab21ae1</id>
        <direccion>SAN VIATOR</direccion>
        <latitud>42.85533979430764</latitud>
        <longitud>-2.680990555047122</longitud>
        <numValoraciones>0</numValoraciones>
        <calificacionMedia>0.0</calificacionMedia>
        <url>http://localhost:8082/api/ciudades/644b0ad7-cb45-4ff0-9d1d-0d15d831a568/aparcamientos/628ca35d5d03cf4ffab21ae1</url>
    </aparcamientos>
    <aparcamientos>
        <id>628ca35d5d03cf4ffab21ae2</id>
        <direccion>CLEMENTE ARRAIZ</direccion>
        <latitud>42.85066466204916</latitud>
        <longitud>-2.685904737202511</longitud>
        <numValoraciones>0</numValoraciones>
        <calificacionMedia>0.0</calificacionMedia>
        <url>http://localhost:8082/api/ciudades/644b0ad7-cb45-4ff0-9d1d-0d15d831a568/aparcamientos/628ca35d5d03cf4ffab21ae2</url>
    </aparcamientos>
    <aparcamientos>
        <id>628ca35d5d03cf4ffab21ae3</id>
        <direccion>B.T. ZUMÁRRAGA</direccion>
        <latitud>42.84928659769283</latitud>
        <longitud>-2.675912200862524</longitud>
        <numValoraciones>0</numValoraciones>
        <calificacionMedia>0.0</calificacionMedia>
        <url>http://localhost:8082/api/ciudades/644b0ad7-cb45-4ff0-9d1d-0d15d831a568/aparcamientos/628ca35d5d03cf4ffab21ae3</url>
    </aparcamientos>
    <aparcamientos>
        <id>628ca35d5d03cf4ffab21ae4</id>
        <direccion>B.T. ZUMÁRRAGA</direccion>
        <latitud>42.84938764414688</latitud>
        <longitud>-2.676612753571982</longitud>
        <numValoraciones>0</numValoraciones>
        <calificacionMedia>0.0</calificacionMedia>
        <url>http://localhost:8082/api/ciudades/644b0ad7-cb45-4ff0-9d1d-0d15d831a568/aparcamientos/628ca35d5d03cf4ffab21ae4</url>
    </aparcamientos>
    <aparcamientos>
        <id>628ca35d5d03cf4ffab21ae5</id>
        <direccion>PEDRO ASUA</direccion>
        <latitud>42.84866548131987</latitud>
        <longitud>-2.688923230777866</longitud>
        <numValoraciones>0</numValoraciones>
        <calificacionMedia>0.0</calificacionMedia>
        <url>http://localhost:8082/api/ciudades/644b0ad7-cb45-4ff0-9d1d-0d15d831a568/aparcamientos/628ca35d5d03cf4ffab21ae5</url>
    </aparcamientos>
    <aparcamientos>
        <id>628ca35d5d03cf4ffab21ae6</id>
        <direccion>PEDRO ASUA</direccion>
        <latitud>42.84804539619403</latitud>
        <longitud>-2.689981585796171</longitud>
        <numValoraciones>0</numValoraciones>
        <calificacionMedia>0.0</calificacionMedia>
        <url>http://localhost:8082/api/ciudades/644b0ad7-cb45-4ff0-9d1d-0d15d831a568/aparcamientos/628ca35d5d03cf4ffab21ae6</url>
    </aparcamientos>
    <aparcamientos>
        <id>628ca35d5d03cf4ffab21ae7</id>
        <direccion>PLAZUELA DE LA ESTACIÓN</direccion>
        <latitud>42.84161110463246</latitud>
        <longitud>-2.672493758138797</longitud>
        <numValoraciones>0</numValoraciones>
        <calificacionMedia>0.0</calificacionMedia>
        <url>http://localhost:8082/api/ciudades/644b0ad7-cb45-4ff0-9d1d-0d15d831a568/aparcamientos/628ca35d5d03cf4ffab21ae7</url>
    </aparcamientos>
    <aparcamientos>
        <id>628ca35d5d03cf4ffab21ae8</id>
        <direccion>DATO</direccion>
        <latitud>42.8418655784509</latitud>
        <longitud>-2.673086939073084</longitud>
        <numValoraciones>0</numValoraciones>
        <calificacionMedia>0.0</calificacionMedia>
        <url>http://localhost:8082/api/ciudades/644b0ad7-cb45-4ff0-9d1d-0d15d831a568/aparcamientos/628ca35d5d03cf4ffab21ae8</url>
    </aparcamientos>
    <aparcamientos>
        <id>628ca35d5d03cf4ffab21ae9</id>
        <direccion>ANTONIO MACHADO</direccion>
        <latitud>42.85913751219114</latitud>
        <longitud>-2.695784902545785</longitud>
        <numValoraciones>0</numValoraciones>
        <calificacionMedia>0.0</calificacionMedia>
        <url>http://localhost:8082/api/ciudades/644b0ad7-cb45-4ff0-9d1d-0d15d831a568/aparcamientos/628ca35d5d03cf4ffab21ae9</url>
    </aparcamientos>
    <aparcamientos>
        <id>628ca35d5d03cf4ffab21aea</id>
        <direccion>ANTONIO DE SUCRE</direccion>
        <latitud>42.84887579538692</latitud>
        <longitud>-2.663731927492198</longitud>
        <numValoraciones>0</numValoraciones>
        <calificacionMedia>0.0</calificacionMedia>
        <url>http://localhost:8082/api/ciudades/644b0ad7-cb45-4ff0-9d1d-0d15d831a568/aparcamientos/628ca35d5d03cf4ffab21aea</url>
    </aparcamientos>
    <aparcamientos>
        <id>628ca35d5d03cf4ffab21aeb</id>
        <direccion>OBISPO BALLESTER</direccion>
        <latitud>42.85294593920777</latitud>
        <longitud>-2.66637480839767</longitud>
        <numValoraciones>0</numValoraciones>
        <calificacionMedia>0.0</calificacionMedia>
        <url>http://localhost:8082/api/ciudades/644b0ad7-cb45-4ff0-9d1d-0d15d831a568/aparcamientos/628ca35d5d03cf4ffab21aeb</url>
    </aparcamientos>
    <aparcamientos>
        <id>628ca35d5d03cf4ffab21aec</id>
        <direccion>ERREKATXIKI</direccion>
        <latitud>42.84758909864029</latitud>
        <longitud>-2.660259244850484</longitud>
        <numValoraciones>0</numValoraciones>
        <calificacionMedia>0.0</calificacionMedia>
        <url>http://localhost:8082/api/ciudades/644b0ad7-cb45-4ff0-9d1d-0d15d831a568/aparcamientos/628ca35d5d03cf4ffab21aec</url>
    </aparcamientos>
    <aparcamientos>
        <id>628ca35d5d03cf4ffab21aed</id>
        <direccion>PABLO URANGA</direccion>
        <latitud>42.84609845482429</latitud>
        <longitud>-2.686320773360782</longitud>
        <numValoraciones>0</numValoraciones>
        <calificacionMedia>0.0</calificacionMedia>
        <url>http://localhost:8082/api/ciudades/644b0ad7-cb45-4ff0-9d1d-0d15d831a568/aparcamientos/628ca35d5d03cf4ffab21aed</url>
    </aparcamientos>
    <aparcamientos>
        <id>628ca35d5d03cf4ffab21aee</id>
        <direccion>MADRID</direccion>
        <latitud>42.85707065585149</latitud>
        <longitud>-2.660030067810048</longitud>
        <numValoraciones>0</numValoraciones>
        <calificacionMedia>0.0</calificacionMedia>
        <url>http://localhost:8082/api/ciudades/644b0ad7-cb45-4ff0-9d1d-0d15d831a568/aparcamientos/628ca35d5d03cf4ffab21aee</url>
    </aparcamientos>
    <aparcamientos>
        <id>628ca35d5d03cf4ffab21aef</id>
        <direccion>MIGUEL MIEG</direccion>
        <latitud>42.83545950907007</latitud>
        <longitud>-2.667733107927807</longitud>
        <numValoraciones>0</numValoraciones>
        <calificacionMedia>0.0</calificacionMedia>
        <url>http://localhost:8082/api/ciudades/644b0ad7-cb45-4ff0-9d1d-0d15d831a568/aparcamientos/628ca35d5d03cf4ffab21aef</url>
    </aparcamientos>
    <aparcamientos>
        <id>628ca35d5d03cf4ffab21af0</id>
        <direccion>AVDA. DE LOS OLMOS</direccion>
        <latitud>42.87482809303707</latitud>
        <longitud>-2.655496958570305</longitud>
        <numValoraciones>0</numValoraciones>
        <calificacionMedia>0.0</calificacionMedia>
        <url>http://localhost:8082/api/ciudades/644b0ad7-cb45-4ff0-9d1d-0d15d831a568/aparcamientos/628ca35d5d03cf4ffab21af0</url>
    </aparcamientos>
    <aparcamientos>
        <id>628ca35d5d03cf4ffab21af1</id>
        <direccion>BARRATXI</direccion>
        <latitud>42.87542199096402</latitud>
        <longitud>-2.648021842647099</longitud>
        <numValoraciones>0</numValoraciones>
        <calificacionMedia>0.0</calificacionMedia>
        <url>http://localhost:8082/api/ciudades/644b0ad7-cb45-4ff0-9d1d-0d15d831a568/aparcamientos/628ca35d5d03cf4ffab21af1</url>
    </aparcamientos>
    <aparcamientos>
        <id>628ca35d5d03cf4ffab21af2</id>
        <direccion>PINTOR VICENTE ABREU</direccion>
        <latitud>42.84845271901502</latitud>
        <longitud>-2.683913752206238</longitud>
        <numValoraciones>0</numValoraciones>
        <calificacionMedia>0.0</calificacionMedia>
        <url>http://localhost:8082/api/ciudades/644b0ad7-cb45-4ff0-9d1d-0d15d831a568/aparcamientos/628ca35d5d03cf4ffab21af2</url>
    </aparcamientos>
    <aparcamientos>
        <id>628ca35d5d03cf4ffab21af3</id>
        <direccion>COMANDANTE IZARDUY</direccion>
        <latitud>42.83993093567419</latitud>
        <longitud>-2.668093703462203</longitud>
        <numValoraciones>0</numValoraciones>
        <calificacionMedia>0.0</calificacionMedia>
        <url>http://localhost:8082/api/ciudades/644b0ad7-cb45-4ff0-9d1d-0d15d831a568/aparcamientos/628ca35d5d03cf4ffab21af3</url>
    </aparcamientos>
    <aparcamientos>
        <id>628ca35d5d03cf4ffab21af4</id>
        <direccion>AVDA. GASTEIZ</direccion>
        <latitud>42.84895246490355</latitud>
        <longitud>-2.681503522656177</longitud>
        <numValoraciones>0</numValoraciones>
        <calificacionMedia>0.0</calificacionMedia>
        <url>http://localhost:8082/api/ciudades/644b0ad7-cb45-4ff0-9d1d-0d15d831a568/aparcamientos/628ca35d5d03cf4ffab21af4</url>
    </aparcamientos>
    <aparcamientos>
        <id>628ca35d5d03cf4ffab21af5</id>
        <direccion>ADRIANO VI</direccion>
        <latitud>42.84720304570121</latitud>
        <longitud>-2.681433657257631</longitud>
        <numValoraciones>0</numValoraciones>
        <calificacionMedia>0.0</calificacionMedia>
        <url>http://localhost:8082/api/ciudades/644b0ad7-cb45-4ff0-9d1d-0d15d831a568/aparcamientos/628ca35d5d03cf4ffab21af5</url>
    </aparcamientos>
    <aparcamientos>
        <id>628ca35d5d03cf4ffab21af6</id>
        <direccion>DOMINGO BELTRÁN DE OTAZU</direccion>
        <latitud>42.85507095434387</latitud>
        <longitud>-2.676255055738583</longitud>
        <numValoraciones>0</numValoraciones>
        <calificacionMedia>0.0</calificacionMedia>
        <url>http://localhost:8082/api/ciudades/644b0ad7-cb45-4ff0-9d1d-0d15d831a568/aparcamientos/628ca35d5d03cf4ffab21af6</url>
    </aparcamientos>
    <aparcamientos>
        <id>628ca35d5d03cf4ffab21af7</id>
        <direccion>JUSTO VÉLEZ DE ELORRIAGA</direccion>
        <latitud>42.84037922840205</latitud>
        <longitud>-2.671305124380157</longitud>
        <numValoraciones>0</numValoraciones>
        <calificacionMedia>0.0</calificacionMedia>
        <url>http://localhost:8082/api/ciudades/644b0ad7-cb45-4ff0-9d1d-0d15d831a568/aparcamientos/628ca35d5d03cf4ffab21af7</url>
    </aparcamientos>
    <aparcamientos>
        <id>628ca35d5d03cf4ffab21af8</id>
        <direccion>CORONACIÓN DE LA VIRGEN BLANCA</direccion>
        <latitud>42.85240892719517</latitud>
        <longitud>-2.676070804004212</longitud>
        <numValoraciones>0</numValoraciones>
        <calificacionMedia>0.0</calificacionMedia>
        <url>http://localhost:8082/api/ciudades/644b0ad7-cb45-4ff0-9d1d-0d15d831a568/aparcamientos/628ca35d5d03cf4ffab21af8</url>
    </aparcamientos>
    <aparcamientos>
        <id>628ca35d5d03cf4ffab21af9</id>
        <direccion>FUENTE DE LA SALUD</direccion>
        <latitud>42.84086830827388</latitud>
        <longitud>-2.661703145696263</longitud>
        <numValoraciones>0</numValoraciones>
        <calificacionMedia>0.0</calificacionMedia>
        <url>http://localhost:8082/api/ciudades/644b0ad7-cb45-4ff0-9d1d-0d15d831a568/aparcamientos/628ca35d5d03cf4ffab21af9</url>
    </aparcamientos>
    <aparcamientos>
        <id>628ca35d5d03cf4ffab21afa</id>
        <direccion>FUENTE DE LA SALUD</direccion>
        <latitud>42.84068008858922</latitud>
        <longitud>-2.662898788432908</longitud>
        <numValoraciones>0</numValoraciones>
        <calificacionMedia>0.0</calificacionMedia>
        <url>http://localhost:8082/api/ciudades/644b0ad7-cb45-4ff0-9d1d-0d15d831a568/aparcamientos/628ca35d5d03cf4ffab21afa</url>
    </aparcamientos>
    <aparcamientos>
        <id>628ca35d5d03cf4ffab21afb</id>
        <direccion>BRUNO VILLARREAL</direccion>
        <latitud>42.85364775559834</latitud>
        <longitud>-2.676985033333386</longitud>
        <numValoraciones>0</numValoraciones>
        <calificacionMedia>0.0</calificacionMedia>
        <url>http://localhost:8082/api/ciudades/644b0ad7-cb45-4ff0-9d1d-0d15d831a568/aparcamientos/628ca35d5d03cf4ffab21afb</url>
    </aparcamientos>
    <aparcamientos>
        <id>628ca35d5d03cf4ffab21afc</id>
        <direccion>PLAZA SANTA BÁRBARA</direccion>
        <latitud>42.84484423927225</latitud>
        <longitud>-2.666286939227232</longitud>
        <numValoraciones>0</numValoraciones>
        <calificacionMedia>0.0</calificacionMedia>
        <url>http://localhost:8082/api/ciudades/644b0ad7-cb45-4ff0-9d1d-0d15d831a568/aparcamientos/628ca35d5d03cf4ffab21afc</url>
    </aparcamientos>
    <aparcamientos>
        <id>628ca35d5d03cf4ffab21afd</id>
        <direccion>JUAN BAUTISTA GAMIZ</direccion>
        <latitud>42.83808062325899</latitud>
        <longitud>-2.664460999750506</longitud>
        <numValoraciones>0</numValoraciones>
        <calificacionMedia>0.0</calificacionMedia>
        <url>http://localhost:8082/api/ciudades/644b0ad7-cb45-4ff0-9d1d-0d15d831a568/aparcamientos/628ca35d5d03cf4ffab21afd</url>
    </aparcamientos>
    <aparcamientos>
        <id>628ca35d5d03cf4ffab21afe</id>
        <direccion>HERACLIO FOURNIER</direccion>
        <latitud>42.83769897567429</latitud>
        <longitud>-2.664042197350945</longitud>
        <numValoraciones>0</numValoraciones>
        <calificacionMedia>0.0</calificacionMedia>
        <url>http://localhost:8082/api/ciudades/644b0ad7-cb45-4ff0-9d1d-0d15d831a568/aparcamientos/628ca35d5d03cf4ffab21afe</url>
    </aparcamientos>
    <aparcamientos>
        <id>628ca35d5d03cf4ffab21aff</id>
        <direccion>LIBERTAD</direccion>
        <latitud>42.84810655928373</latitud>
        <longitud>-2.666103485901838</longitud>
        <numValoraciones>0</numValoraciones>
        <calificacionMedia>0.0</calificacionMedia>
        <url>http://localhost:8082/api/ciudades/644b0ad7-cb45-4ff0-9d1d-0d15d831a568/aparcamientos/628ca35d5d03cf4ffab21aff</url>
    </aparcamientos>
    <aparcamientos>
        <id>628ca35d5d03cf4ffab21b00</id>
        <direccion>RAMÓN ORTIZ DE ZARATE</direccion>
        <latitud>42.8436491457815</latitud>
        <longitud>-2.668738303867369</longitud>
        <numValoraciones>0</numValoraciones>
        <calificacionMedia>0.0</calificacionMedia>
        <url>http://localhost:8082/api/ciudades/644b0ad7-cb45-4ff0-9d1d-0d15d831a568/aparcamientos/628ca35d5d03cf4ffab21b00</url>
    </aparcamientos>
    <aparcamientos>
        <id>628ca35d5d03cf4ffab21b01</id>
        <direccion>ADRIANO VI</direccion>
        <latitud>42.84665592751259</latitud>
        <longitud>-2.679784976797908</longitud>
        <numValoraciones>0</numValoraciones>
        <calificacionMedia>0.0</calificacionMedia>
        <url>http://localhost:8082/api/ciudades/644b0ad7-cb45-4ff0-9d1d-0d15d831a568/aparcamientos/628ca35d5d03cf4ffab21b01</url>
    </aparcamientos>
    <aparcamientos>
        <id>628ca35d5d03cf4ffab21b02</id>
        <direccion>ZENDAGUREN</direccion>
        <latitud>42.83860601330842</latitud>
        <longitud>-2.668235959976257</longitud>
        <numValoraciones>0</numValoraciones>
        <calificacionMedia>0.0</calificacionMedia>
        <url>http://localhost:8082/api/ciudades/644b0ad7-cb45-4ff0-9d1d-0d15d831a568/aparcamientos/628ca35d5d03cf4ffab21b02</url>
    </aparcamientos>
    <aparcamientos>
        <id>628ca35d5d03cf4ffab21b03</id>
        <direccion>PORTAL DE LASARTE</direccion>
        <latitud>42.83743669179042</latitud>
        <longitud>-2.684859785540297</longitud>
        <numValoraciones>0</numValoraciones>
        <calificacionMedia>0.0</calificacionMedia>
        <url>http://localhost:8082/api/ciudades/644b0ad7-cb45-4ff0-9d1d-0d15d831a568/aparcamientos/628ca35d5d03cf4ffab21b03</url>
    </aparcamientos>
    <aparcamientos>
        <id>628ca35d5d03cf4ffab21b04</id>
        <direccion>MENDIZABALA</direccion>
        <latitud>42.83660597303111</latitud>
        <longitud>-2.685215400146216</longitud>
        <numValoraciones>0</numValoraciones>
        <calificacionMedia>0.0</calificacionMedia>
        <url>http://localhost:8082/api/ciudades/644b0ad7-cb45-4ff0-9d1d-0d15d831a568/aparcamientos/628ca35d5d03cf4ffab21b04</url>
    </aparcamientos>
    <aparcamientos>
        <id>628ca35d5d03cf4ffab21b05</id>
        <direccion>POLVORIN VIEJO</direccion>
        <latitud>42.84574874963935</latitud>
        <longitud>-2.658543922382707</longitud>
        <numValoraciones>0</numValoraciones>
        <calificacionMedia>0.0</calificacionMedia>
        <url>http://localhost:8082/api/ciudades/644b0ad7-cb45-4ff0-9d1d-0d15d831a568/aparcamientos/628ca35d5d03cf4ffab21b05</url>
    </aparcamientos>
    <aparcamientos>
        <id>628ca35d5d03cf4ffab21b06</id>
        <direccion>ERREKATXIKI</direccion>
        <latitud>42.84538393364316</latitud>
        <longitud>-2.660015129623014</longitud>
        <numValoraciones>0</numValoraciones>
        <calificacionMedia>0.0</calificacionMedia>
        <url>http://localhost:8082/api/ciudades/644b0ad7-cb45-4ff0-9d1d-0d15d831a568/aparcamientos/628ca35d5d03cf4ffab21b06</url>
    </aparcamientos>
    <aparcamientos>
        <id>628ca35d5d03cf4ffab21b07</id>
        <direccion>PLAZUELA DE LOS GOROS</direccion>
        <latitud>42.85417717986645</latitud>
        <longitud>-2.697167445659042</longitud>
        <numValoraciones>0</numValoraciones>
        <calificacionMedia>0.0</calificacionMedia>
        <url>http://localhost:8082/api/ciudades/644b0ad7-cb45-4ff0-9d1d-0d15d831a568/aparcamientos/628ca35d5d03cf4ffab21b07</url>
    </aparcamientos>
    <aparcamientos>
        <id>628ca35d5d03cf4ffab21b08</id>
        <direccion>AVDA. DE LOS HUETOS</direccion>
        <latitud>42.85331398772578</latitud>
        <longitud>-2.697365795306349</longitud>
        <numValoraciones>0</numValoraciones>
        <calificacionMedia>0.0</calificacionMedia>
        <url>http://localhost:8082/api/ciudades/644b0ad7-cb45-4ff0-9d1d-0d15d831a568/aparcamientos/628ca35d5d03cf4ffab21b08</url>
    </aparcamientos>
    <aparcamientos>
        <id>628ca35d5d03cf4ffab21b09</id>
        <direccion>AVDA. DE LOS HUETOS</direccion>
        <latitud>42.85312327439711</latitud>
        <longitud>-2.696534359613743</longitud>
        <numValoraciones>0</numValoraciones>
        <calificacionMedia>0.0</calificacionMedia>
        <url>http://localhost:8082/api/ciudades/644b0ad7-cb45-4ff0-9d1d-0d15d831a568/aparcamientos/628ca35d5d03cf4ffab21b09</url>
    </aparcamientos>
    <aparcamientos>
        <id>628ca35d5d03cf4ffab21b0a</id>
        <direccion>RAMÓN RUBIAL</direccion>
        <latitud>42.85481478477111</latitud>
        <longitud>-2.695659495849525</longitud>
        <numValoraciones>0</numValoraciones>
        <calificacionMedia>0.0</calificacionMedia>
        <url>http://localhost:8082/api/ciudades/644b0ad7-cb45-4ff0-9d1d-0d15d831a568/aparcamientos/628ca35d5d03cf4ffab21b0a</url>
    </aparcamientos>
    <aparcamientos>
        <id>628ca35d5d03cf4ffab21b0b</id>
        <direccion>CRUCE AVDA. SANTIAGO</direccion>
        <latitud>42.84709681656185</latitud>
        <longitud>-2.66606963547665</longitud>
        <numValoraciones>0</numValoraciones>
        <calificacionMedia>0.0</calificacionMedia>
        <url>http://localhost:8082/api/ciudades/644b0ad7-cb45-4ff0-9d1d-0d15d831a568/aparcamientos/628ca35d5d03cf4ffab21b0b</url>
    </aparcamientos>
    <aparcamientos>
        <id>628ca35d5d03cf4ffab21b0c</id>
        <direccion>AVDA. SANTIAGO</direccion>
        <latitud>42.84701816307446</latitud>
        <longitud>-2.666775902137394</longitud>
        <numValoraciones>0</numValoraciones>
        <calificacionMedia>0.0</calificacionMedia>
        <url>http://localhost:8082/api/ciudades/644b0ad7-cb45-4ff0-9d1d-0d15d831a568/aparcamientos/628ca35d5d03cf4ffab21b0c</url>
    </aparcamientos>
    <aparcamientos>
        <id>628ca35d5d03cf4ffab21b0d</id>
        <direccion>JOSÉ MARDONES</direccion>
        <latitud>42.84699796592939</latitud>
        <longitud>-2.664599640440799</longitud>
        <numValoraciones>0</numValoraciones>
        <calificacionMedia>0.0</calificacionMedia>
        <url>http://localhost:8082/api/ciudades/644b0ad7-cb45-4ff0-9d1d-0d15d831a568/aparcamientos/628ca35d5d03cf4ffab21b0d</url>
    </aparcamientos>
    <aparcamientos>
        <id>628ca35d5d03cf4ffab21b0e</id>
        <direccion>PABLO MORILLO</direccion>
        <latitud>42.85766353170764</latitud>
        <longitud>-2.697585761092165</longitud>
        <numValoraciones>0</numValoraciones>
        <calificacionMedia>0.0</calificacionMedia>
        <url>http://localhost:8082/api/ciudades/644b0ad7-cb45-4ff0-9d1d-0d15d831a568/aparcamientos/628ca35d5d03cf4ffab21b0e</url>
    </aparcamientos>
    <aparcamientos>
        <id>628ca35d5d03cf4ffab21b0f</id>
        <direccion>PABLO MORILLO</direccion>
        <latitud>42.85705239043535</latitud>
        <longitud>-2.697321729059787</longitud>
        <numValoraciones>0</numValoraciones>
        <calificacionMedia>0.0</calificacionMedia>
        <url>http://localhost:8082/api/ciudades/644b0ad7-cb45-4ff0-9d1d-0d15d831a568/aparcamientos/628ca35d5d03cf4ffab21b0f</url>
    </aparcamientos>
    <aparcamientos>
        <id>628ca35d5d03cf4ffab21b10</id>
        <direccion>DUQUE DE WELLINGTON</direccion>
        <latitud>42.85782406770024</latitud>
        <longitud>-2.690081901601447</longitud>
        <numValoraciones>0</numValoraciones>
        <calificacionMedia>0.0</calificacionMedia>
        <url>http://localhost:8082/api/ciudades/644b0ad7-cb45-4ff0-9d1d-0d15d831a568/aparcamientos/628ca35d5d03cf4ffab21b10</url>
    </aparcamientos>
    <aparcamientos>
        <id>628ca35d5d03cf4ffab21b11</id>
        <direccion>DUQUE DE WELLINGTON</direccion>
        <latitud>42.85777777800337</latitud>
        <longitud>-2.690047071480363</longitud>
        <numValoraciones>0</numValoraciones>
        <calificacionMedia>0.0</calificacionMedia>
        <url>http://localhost:8082/api/ciudades/644b0ad7-cb45-4ff0-9d1d-0d15d831a568/aparcamientos/628ca35d5d03cf4ffab21b11</url>
    </aparcamientos>
    <aparcamientos>
        <id>628ca35d5d03cf4ffab21b12</id>
        <direccion>SIERRA DE ARALAR</direccion>
        <latitud>42.86227965760227</latitud>
        <longitud>-2.694492126422233</longitud>
        <numValoraciones>0</numValoraciones>
        <calificacionMedia>0.0</calificacionMedia>
        <url>http://localhost:8082/api/ciudades/644b0ad7-cb45-4ff0-9d1d-0d15d831a568/aparcamientos/628ca35d5d03cf4ffab21b12</url>
    </aparcamientos>
    <aparcamientos>
        <id>628ca35d5d03cf4ffab21b13</id>
        <direccion>BAIONA</direccion>
        <latitud>42.86638849214262</latitud>
        <longitud>-2.688333031495236</longitud>
        <numValoraciones>0</numValoraciones>
        <calificacionMedia>0.0</calificacionMedia>
        <url>http://localhost:8082/api/ciudades/644b0ad7-cb45-4ff0-9d1d-0d15d831a568/aparcamientos/628ca35d5d03cf4ffab21b13</url>
    </aparcamientos>
    <aparcamientos>
        <id>628ca35d5d03cf4ffab21b14</id>
        <direccion>BAIONA</direccion>
        <latitud>42.8648727110929</latitud>
        <longitud>-2.692232225271398</longitud>
        <numValoraciones>0</numValoraciones>
        <calificacionMedia>0.0</calificacionMedia>
        <url>http://localhost:8082/api/ciudades/644b0ad7-cb45-4ff0-9d1d-0d15d831a568/aparcamientos/628ca35d5d03cf4ffab21b14</url>
    </aparcamientos>
    <aparcamientos>
        <id>628ca35d5d03cf4ffab21b15</id>
        <direccion>BAIONA</direccion>
        <latitud>42.86524594391823</latitud>
        <longitud>-2.691289723077313</longitud>
        <numValoraciones>0</numValoraciones>
        <calificacionMedia>0.0</calificacionMedia>
        <url>http://localhost:8082/api/ciudades/644b0ad7-cb45-4ff0-9d1d-0d15d831a568/aparcamientos/628ca35d5d03cf4ffab21b15</url>
    </aparcamientos>
    <aparcamientos>
        <id>628ca35d5d03cf4ffab21b16</id>
        <direccion>VENEZUELA</direccion>
        <latitud>42.85812454103772</latitud>
        <longitud>-2.678791200418588</longitud>
        <numValoraciones>0</numValoraciones>
        <calificacionMedia>0.0</calificacionMedia>
        <url>http://localhost:8082/api/ciudades/644b0ad7-cb45-4ff0-9d1d-0d15d831a568/aparcamientos/628ca35d5d03cf4ffab21b16</url>
    </aparcamientos>
    <aparcamientos>
        <id>628ca35d5d03cf4ffab21b17</id>
        <direccion>PARAGUAY</direccion>
        <latitud>42.85719865634987</latitud>
        <longitud>-2.67830564569888</longitud>
        <numValoraciones>0</numValoraciones>
        <calificacionMedia>0.0</calificacionMedia>
        <url>http://localhost:8082/api/ciudades/644b0ad7-cb45-4ff0-9d1d-0d15d831a568/aparcamientos/628ca35d5d03cf4ffab21b17</url>
    </aparcamientos>
    <aparcamientos>
        <id>628ca35d5d03cf4ffab21b18</id>
        <direccion>PÁNAMA</direccion>
        <latitud>42.85956791111323</latitud>
        <longitud>-2.67664644728402</longitud>
        <numValoraciones>0</numValoraciones>
        <calificacionMedia>0.0</calificacionMedia>
        <url>http://localhost:8082/api/ciudades/644b0ad7-cb45-4ff0-9d1d-0d15d831a568/aparcamientos/628ca35d5d03cf4ffab21b18</url>
    </aparcamientos>
    <aparcamientos>
        <id>628ca35d5d03cf4ffab21b19</id>
        <direccion>PANAMÁ</direccion>
        <latitud>42.8604153752304</latitud>
        <longitud>-2.676316437870664</longitud>
        <numValoraciones>0</numValoraciones>
        <calificacionMedia>0.0</calificacionMedia>
        <url>http://localhost:8082/api/ciudades/644b0ad7-cb45-4ff0-9d1d-0d15d831a568/aparcamientos/628ca35d5d03cf4ffab21b19</url>
    </aparcamientos>
    <aparcamientos>
        <id>628ca35d5d03cf4ffab21b1a</id>
        <direccion>PUERTO DE AZAZETA</direccion>
        <latitud>42.85808727577443</latitud>
        <longitud>-2.6716370072037</longitud>
        <numValoraciones>0</numValoraciones>
        <calificacionMedia>0.0</calificacionMedia>
        <url>http://localhost:8082/api/ciudades/644b0ad7-cb45-4ff0-9d1d-0d15d831a568/aparcamientos/628ca35d5d03cf4ffab21b1a</url>
    </aparcamientos>
    <aparcamientos>
        <id>628ca35d5d03cf4ffab21b1b</id>
        <direccion>PERÚ</direccion>
        <latitud>42.85599833406831</latitud>
        <longitud>-2.673710661640865</longitud>
        <numValoraciones>0</numValoraciones>
        <calificacionMedia>0.0</calificacionMedia>
        <url>http://localhost:8082/api/ciudades/644b0ad7-cb45-4ff0-9d1d-0d15d831a568/aparcamientos/628ca35d5d03cf4ffab21b1b</url>
    </aparcamientos>
    <aparcamientos>
        <id>628ca35d5d03cf4ffab21b1c</id>
        <direccion>PUERTO DE URKIOLA</direccion>
        <latitud>42.86057636344743</latitud>
        <longitud>-2.66988727758431</longitud>
        <numValoraciones>0</numValoraciones>
        <calificacionMedia>0.0</calificacionMedia>
        <url>http://localhost:8082/api/ciudades/644b0ad7-cb45-4ff0-9d1d-0d15d831a568/aparcamientos/628ca35d5d03cf4ffab21b1c</url>
    </aparcamientos>
    <aparcamientos>
        <id>628ca35d5d03cf4ffab21b1d</id>
        <direccion>MENDOZA</direccion>
        <latitud>42.86061118557953</latitud>
        <longitud>-2.669251496081474</longitud>
        <numValoraciones>0</numValoraciones>
        <calificacionMedia>0.0</calificacionMedia>
        <url>http://localhost:8082/api/ciudades/644b0ad7-cb45-4ff0-9d1d-0d15d831a568/aparcamientos/628ca35d5d03cf4ffab21b1d</url>
    </aparcamientos>
    <aparcamientos>
        <id>628ca35d5d03cf4ffab21b1e</id>
        <direccion>MENDOZA</direccion>
        <latitud>42.85886402862477</latitud>
        <longitud>-2.668468758314498</longitud>
        <numValoraciones>0</numValoraciones>
        <calificacionMedia>0.0</calificacionMedia>
        <url>http://localhost:8082/api/ciudades/644b0ad7-cb45-4ff0-9d1d-0d15d831a568/aparcamientos/628ca35d5d03cf4ffab21b1e</url>
    </aparcamientos>
    <aparcamientos>
        <id>628ca35d5d03cf4ffab21b1f</id>
        <direccion>CUADRILLA DE VITORIA</direccion>
        <latitud>42.85749236802137</latitud>
        <longitud>-2.670810234683358</longitud>
        <numValoraciones>0</numValoraciones>
        <calificacionMedia>0.0</calificacionMedia>
        <url>http://localhost:8082/api/ciudades/644b0ad7-cb45-4ff0-9d1d-0d15d831a568/aparcamientos/628ca35d5d03cf4ffab21b1f</url>
    </aparcamientos>
    <aparcamientos>
        <id>628ca35d5d03cf4ffab21b20</id>
        <direccion>BERNAL DIAZ DE LUCO</direccion>
        <latitud>42.85665406404326</latitud>
        <longitud>-2.670635769372158</longitud>
        <numValoraciones>0</numValoraciones>
        <calificacionMedia>0.0</calificacionMedia>
        <url>http://localhost:8082/api/ciudades/644b0ad7-cb45-4ff0-9d1d-0d15d831a568/aparcamientos/628ca35d5d03cf4ffab21b20</url>
    </aparcamientos>
    <aparcamientos>
        <id>628ca35d5d03cf4ffab21b21</id>
        <direccion>LAGUARDIA</direccion>
        <latitud>42.85811128741252</latitud>
        <longitud>-2.664516545625586</longitud>
        <numValoraciones>0</numValoraciones>
        <calificacionMedia>0.0</calificacionMedia>
        <url>http://localhost:8082/api/ciudades/644b0ad7-cb45-4ff0-9d1d-0d15d831a568/aparcamientos/628ca35d5d03cf4ffab21b21</url>
    </aparcamientos>
    <aparcamientos>
        <id>628ca35d5d03cf4ffab21b22</id>
        <direccion>PLAZA GREGORIO ALTUBE</direccion>
        <latitud>42.8554371910463</latitud>
        <longitud>-2.663689013630145</longitud>
        <numValoraciones>0</numValoraciones>
        <calificacionMedia>0.0</calificacionMedia>
        <url>http://localhost:8082/api/ciudades/644b0ad7-cb45-4ff0-9d1d-0d15d831a568/aparcamientos/628ca35d5d03cf4ffab21b22</url>
    </aparcamientos>
    <aparcamientos>
        <id>628ca35d5d03cf4ffab21b23</id>
        <direccion>BURGOS</direccion>
        <latitud>42.85434973797508</latitud>
        <longitud>-2.659253731983032</longitud>
        <numValoraciones>0</numValoraciones>
        <calificacionMedia>0.0</calificacionMedia>
        <url>http://localhost:8082/api/ciudades/644b0ad7-cb45-4ff0-9d1d-0d15d831a568/aparcamientos/628ca35d5d03cf4ffab21b23</url>
    </aparcamientos>
    <aparcamientos>
        <id>628ca35d5d03cf4ffab21b24</id>
        <direccion>SIERRAS ALAVESAS</direccion>
        <latitud>42.85157352434963</latitud>
        <longitud>-2.664651360219124</longitud>
        <numValoraciones>0</numValoraciones>
        <calificacionMedia>0.0</calificacionMedia>
        <url>http://localhost:8082/api/ciudades/644b0ad7-cb45-4ff0-9d1d-0d15d831a568/aparcamientos/628ca35d5d03cf4ffab21b24</url>
    </aparcamientos>
    <aparcamientos>
        <id>628ca35d5d03cf4ffab21b25</id>
        <direccion>ARANA</direccion>
        <latitud>42.85039601582531</latitud>
        <longitud>-2.667590205618084</longitud>
        <numValoraciones>0</numValoraciones>
        <calificacionMedia>0.0</calificacionMedia>
        <url>http://localhost:8082/api/ciudades/644b0ad7-cb45-4ff0-9d1d-0d15d831a568/aparcamientos/628ca35d5d03cf4ffab21b25</url>
    </aparcamientos>
    <aparcamientos>
        <id>628ca35d5d03cf4ffab21b26</id>
        <direccion>LOGROÑO</direccion>
        <latitud>42.84973256669253</latitud>
        <longitud>-2.661561575305945</longitud>
        <numValoraciones>0</numValoraciones>
        <calificacionMedia>0.0</calificacionMedia>
        <url>http://localhost:8082/api/ciudades/644b0ad7-cb45-4ff0-9d1d-0d15d831a568/aparcamientos/628ca35d5d03cf4ffab21b26</url>
    </aparcamientos>
    <aparcamientos>
        <id>628ca35d5d03cf4ffab21b27</id>
        <direccion>JOSÉ DE ANCHIETA</direccion>
        <latitud>42.84817509656468</latitud>
        <longitud>-2.66158850825525</longitud>
        <numValoraciones>0</numValoraciones>
        <calificacionMedia>0.0</calificacionMedia>
        <url>http://localhost:8082/api/ciudades/644b0ad7-cb45-4ff0-9d1d-0d15d831a568/aparcamientos/628ca35d5d03cf4ffab21b27</url>
    </aparcamientos>
    <aparcamientos>
        <id>628ca35d5d03cf4ffab21b28</id>
        <direccion>BENITO GUINEA</direccion>
        <latitud>42.84614503858348</latitud>
        <longitud>-2.661562771018618</longitud>
        <numValoraciones>0</numValoraciones>
        <calificacionMedia>0.0</calificacionMedia>
        <url>http://localhost:8082/api/ciudades/644b0ad7-cb45-4ff0-9d1d-0d15d831a568/aparcamientos/628ca35d5d03cf4ffab21b28</url>
    </aparcamientos>
    <aparcamientos>
        <id>628ca35d5d03cf4ffab21b29</id>
        <direccion>JESÚS GURIDI</direccion>
        <latitud>42.84368192904478</latitud>
        <longitud>-2.665401893701053</longitud>
        <numValoraciones>0</numValoraciones>
        <calificacionMedia>0.0</calificacionMedia>
        <url>http://localhost:8082/api/ciudades/644b0ad7-cb45-4ff0-9d1d-0d15d831a568/aparcamientos/628ca35d5d03cf4ffab21b29</url>
    </aparcamientos>
    <aparcamientos>
        <id>628ca35d5d03cf4ffab21b2a</id>
        <direccion>MANUEL IRADIER</direccion>
        <latitud>42.8420499183884</latitud>
        <longitud>-2.670893967169654</longitud>
        <numValoraciones>0</numValoraciones>
        <calificacionMedia>0.0</calificacionMedia>
        <url>http://localhost:8082/api/ciudades/644b0ad7-cb45-4ff0-9d1d-0d15d831a568/aparcamientos/628ca35d5d03cf4ffab21b2a</url>
    </aparcamientos>
    <aparcamientos>
        <id>628ca35d5d03cf4ffab21b2b</id>
        <direccion>PORTAL DE CASTILLA</direccion>
        <latitud>42.84320586984867</latitud>
        <longitud>-2.680679866041817</longitud>
        <numValoraciones>0</numValoraciones>
        <calificacionMedia>0.0</calificacionMedia>
        <url>http://localhost:8082/api/ciudades/644b0ad7-cb45-4ff0-9d1d-0d15d831a568/aparcamientos/628ca35d5d03cf4ffab21b2b</url>
    </aparcamientos>
    <aparcamientos>
        <id>628ca35d5d03cf4ffab21b2c</id>
        <direccion>CASTILLO DE GEBARA</direccion>
        <latitud>42.84159546032583</latitud>
        <longitud>-2.691178174870877</longitud>
        <numValoraciones>0</numValoraciones>
        <calificacionMedia>0.0</calificacionMedia>
        <url>http://localhost:8082/api/ciudades/644b0ad7-cb45-4ff0-9d1d-0d15d831a568/aparcamientos/628ca35d5d03cf4ffab21b2c</url>
    </aparcamientos>
    <aparcamientos>
        <id>628ca35d5d03cf4ffab21b2d</id>
        <direccion>AVENIDA DEL MEDITERRÁNEO</direccion>
        <latitud>42.84067682124017</latitud>
        <longitud>-2.69598019289982</longitud>
        <numValoraciones>0</numValoraciones>
        <calificacionMedia>0.0</calificacionMedia>
        <url>http://localhost:8082/api/ciudades/644b0ad7-cb45-4ff0-9d1d-0d15d831a568/aparcamientos/628ca35d5d03cf4ffab21b2d</url>
    </aparcamientos>
    <aparcamientos>
        <id>628ca35d5d03cf4ffab21b2e</id>
        <direccion>ADRIANO VI</direccion>
        <latitud>42.84772888331735</latitud>
        <longitud>-2.682994925118769</longitud>
        <numValoraciones>0</numValoraciones>
        <calificacionMedia>0.0</calificacionMedia>
        <url>http://localhost:8082/api/ciudades/644b0ad7-cb45-4ff0-9d1d-0d15d831a568/aparcamientos/628ca35d5d03cf4ffab21b2e</url>
    </aparcamientos>
    <aparcamientos>
        <id>628ca35d5d03cf4ffab21b2f</id>
        <direccion>SEBASTIÁN FERNÁNDEZ DE LECETA</direccion>
        <latitud>42.85054541506376</latitud>
        <longitud>-2.682719724804179</longitud>
        <numValoraciones>0</numValoraciones>
        <calificacionMedia>0.0</calificacionMedia>
        <url>http://localhost:8082/api/ciudades/644b0ad7-cb45-4ff0-9d1d-0d15d831a568/aparcamientos/628ca35d5d03cf4ffab21b2f</url>
    </aparcamientos>
    <aparcamientos>
        <id>628ca35d5d03cf4ffab21b30</id>
        <direccion>B.T. ZUMÁRRAGA</direccion>
        <latitud>42.85056613013344</latitud>
        <longitud>-2.684438051051997</longitud>
        <numValoraciones>0</numValoraciones>
        <calificacionMedia>0.0</calificacionMedia>
        <url>http://localhost:8082/api/ciudades/644b0ad7-cb45-4ff0-9d1d-0d15d831a568/aparcamientos/628ca35d5d03cf4ffab21b30</url>
    </aparcamientos>
    <aparcamientos>
        <id>628ca35d5d03cf4ffab21b31</id>
        <direccion>CHILE</direccion>
        <latitud>42.8520904849427</latitud>
        <longitud>-2.685876388266881</longitud>
        <numValoraciones>0</numValoraciones>
        <calificacionMedia>0.0</calificacionMedia>
        <url>http://localhost:8082/api/ciudades/644b0ad7-cb45-4ff0-9d1d-0d15d831a568/aparcamientos/628ca35d5d03cf4ffab21b31</url>
    </aparcamientos>
    <aparcamientos>
        <id>628ca35d5d03cf4ffab21b32</id>
        <direccion>ECUADOR</direccion>
        <latitud>42.85420962093203</latitud>
        <longitud>-2.685711192226381</longitud>
        <numValoraciones>0</numValoraciones>
        <calificacionMedia>0.0</calificacionMedia>
        <url>http://localhost:8082/api/ciudades/644b0ad7-cb45-4ff0-9d1d-0d15d831a568/aparcamientos/628ca35d5d03cf4ffab21b32</url>
    </aparcamientos>
    <aparcamientos>
        <id>628ca35d5d03cf4ffab21b33</id>
        <direccion>BOLIVIA</direccion>
        <latitud>42.85416294890341</latitud>
        <longitud>-2.682272718633918</longitud>
        <numValoraciones>0</numValoraciones>
        <calificacionMedia>0.0</calificacionMedia>
        <url>http://localhost:8082/api/ciudades/644b0ad7-cb45-4ff0-9d1d-0d15d831a568/aparcamientos/628ca35d5d03cf4ffab21b33</url>
    </aparcamientos>
    <aparcamientos>
        <id>628ca35d5d03cf4ffab21b34</id>
        <direccion>GORBEA</direccion>
        <latitud>42.85327573385847</latitud>
        <longitud>-2.679303560593006</longitud>
        <numValoraciones>0</numValoraciones>
        <calificacionMedia>0.0</calificacionMedia>
        <url>http://localhost:8082/api/ciudades/644b0ad7-cb45-4ff0-9d1d-0d15d831a568/aparcamientos/628ca35d5d03cf4ffab21b34</url>
    </aparcamientos>
    <aparcamientos>
        <id>628ca35d5d03cf4ffab21b35</id>
        <direccion>NAVARRO VILLOSLADA</direccion>
        <latitud>42.85343762120017</latitud>
        <longitud>-2.677722938627863</longitud>
        <numValoraciones>0</numValoraciones>
        <calificacionMedia>0.0</calificacionMedia>
        <url>http://localhost:8082/api/ciudades/644b0ad7-cb45-4ff0-9d1d-0d15d831a568/aparcamientos/628ca35d5d03cf4ffab21b35</url>
    </aparcamientos>
    <aparcamientos>
        <id>628ca35d5d03cf4ffab21b36</id>
        <direccion>CUBO</direccion>
        <latitud>42.85203410647122</latitud>
        <longitud>-2.671241217976391</longitud>
        <numValoraciones>0</numValoraciones>
        <calificacionMedia>0.0</calificacionMedia>
        <url>http://localhost:8082/api/ciudades/644b0ad7-cb45-4ff0-9d1d-0d15d831a568/aparcamientos/628ca35d5d03cf4ffab21b36</url>
    </aparcamientos>
    <aparcamientos>
        <id>628ca35d5d03cf4ffab21b37</id>
        <direccion>BUENO MONREAL</direccion>
        <latitud>42.85111421342787</latitud>
        <longitud>-2.670465175076108</longitud>
        <numValoraciones>0</numValoraciones>
        <calificacionMedia>0.0</calificacionMedia>
        <url>http://localhost:8082/api/ciudades/644b0ad7-cb45-4ff0-9d1d-0d15d831a568/aparcamientos/628ca35d5d03cf4ffab21b37</url>
    </aparcamientos>
    <aparcamientos>
        <id>628ca35d5d03cf4ffab21b38</id>
        <direccion>CORRERIA</direccion>
        <latitud>42.85059245297178</latitud>
        <longitud>-2.673449723723375</longitud>
        <numValoraciones>0</numValoraciones>
        <calificacionMedia>0.0</calificacionMedia>
        <url>http://localhost:8082/api/ciudades/644b0ad7-cb45-4ff0-9d1d-0d15d831a568/aparcamientos/628ca35d5d03cf4ffab21b38</url>
    </aparcamientos>
    <aparcamientos>
        <id>628ca35d5d03cf4ffab21b39</id>
        <direccion>FRAY ZACARÍAS MARTINEZ</direccion>
        <latitud>42.85050334971003</latitud>
        <longitud>-2.672902603966667</longitud>
        <numValoraciones>0</numValoraciones>
        <calificacionMedia>0.0</calificacionMedia>
        <url>http://localhost:8082/api/ciudades/644b0ad7-cb45-4ff0-9d1d-0d15d831a568/aparcamientos/628ca35d5d03cf4ffab21b39</url>
    </aparcamientos>
    <aparcamientos>
        <id>628ca35d5d03cf4ffab21b3a</id>
        <direccion>SAN FRANCISCO</direccion>
        <latitud>42.84720567379948</latitud>
        <longitud>-2.670609920517757</longitud>
        <numValoraciones>0</numValoraciones>
        <calificacionMedia>0.0</calificacionMedia>
        <url>http://localhost:8082/api/ciudades/644b0ad7-cb45-4ff0-9d1d-0d15d831a568/aparcamientos/628ca35d5d03cf4ffab21b3a</url>
    </aparcamientos>
    <aparcamientos>
        <id>628ca35d5d03cf4ffab21b3b</id>
        <direccion>SAN FRANCISCO</direccion>
        <latitud>42.84719581448471</latitud>
        <longitud>-2.669582162936226</longitud>
        <numValoraciones>0</numValoraciones>
        <calificacionMedia>0.0</calificacionMedia>
        <url>http://localhost:8082/api/ciudades/644b0ad7-cb45-4ff0-9d1d-0d15d831a568/aparcamientos/628ca35d5d03cf4ffab21b3b</url>
    </aparcamientos>
    <aparcamientos>
        <id>628ca35d5d03cf4ffab21b3c</id>
        <direccion>ALFREDO DONNAY</direccion>
        <latitud>42.86623579134336</latitud>
        <longitud>-2.676372850065346</longitud>
        <numValoraciones>0</numValoraciones>
        <calificacionMedia>0.0</calificacionMedia>
        <url>http://localhost:8082/api/ciudades/644b0ad7-cb45-4ff0-9d1d-0d15d831a568/aparcamientos/628ca35d5d03cf4ffab21b3c</url>
    </aparcamientos>
    <aparcamientos>
        <id>628ca35d5d03cf4ffab21b3d</id>
        <direccion>AGUIRRELANDA</direccion>
        <latitud>42.8669887766212</latitud>
        <longitud>-2.675718422387801</longitud>
        <numValoraciones>0</numValoraciones>
        <calificacionMedia>0.0</calificacionMedia>
        <url>http://localhost:8082/api/ciudades/644b0ad7-cb45-4ff0-9d1d-0d15d831a568/aparcamientos/628ca35d5d03cf4ffab21b3d</url>
    </aparcamientos>
    <aparcamientos>
        <id>628ca35d5d03cf4ffab21b3e</id>
        <direccion>URIBEGUELA</direccion>
        <latitud>42.87532562506119</latitud>
        <longitud>-2.676219420425776</longitud>
        <numValoraciones>0</numValoraciones>
        <calificacionMedia>0.0</calificacionMedia>
        <url>http://localhost:8082/api/ciudades/644b0ad7-cb45-4ff0-9d1d-0d15d831a568/aparcamientos/628ca35d5d03cf4ffab21b3e</url>
    </aparcamientos>
    <aparcamientos>
        <id>628ca35d5d03cf4ffab21b3f</id>
        <direccion>JOSÉ MARÍA DÍAZ DE MENDIVIL</direccion>
        <latitud>42.86770367797677</latitud>
        <longitud>-2.681081524579451</longitud>
        <numValoraciones>0</numValoraciones>
        <calificacionMedia>0.0</calificacionMedia>
        <url>http://localhost:8082/api/ciudades/644b0ad7-cb45-4ff0-9d1d-0d15d831a568/aparcamientos/628ca35d5d03cf4ffab21b3f</url>
    </aparcamientos>
    <aparcamientos>
        <id>628ca35d5d03cf4ffab21b40</id>
        <direccion>FRANCISCO JAVIER LANDABURU</direccion>
        <latitud>42.86395863106315</latitud>
        <longitud>-2.679163344734062</longitud>
        <numValoraciones>0</numValoraciones>
        <calificacionMedia>0.0</calificacionMedia>
        <url>http://localhost:8082/api/ciudades/644b0ad7-cb45-4ff0-9d1d-0d15d831a568/aparcamientos/628ca35d5d03cf4ffab21b40</url>
    </aparcamientos>
    <aparcamientos>
        <id>628ca35d5d03cf4ffab21b41</id>
        <direccion>HERACLIO ALFARO</direccion>
        <latitud>42.8531944868098</latitud>
        <longitud>-2.65510238215511</longitud>
        <numValoraciones>0</numValoraciones>
        <calificacionMedia>0.0</calificacionMedia>
        <url>http://localhost:8082/api/ciudades/644b0ad7-cb45-4ff0-9d1d-0d15d831a568/aparcamientos/628ca35d5d03cf4ffab21b41</url>
    </aparcamientos>
    <aparcamientos>
        <id>628ca35d5d03cf4ffab21b42</id>
        <direccion>VIENA</direccion>
        <latitud>42.85304753551804</latitud>
        <longitud>-2.654622314594705</longitud>
        <numValoraciones>0</numValoraciones>
        <calificacionMedia>0.0</calificacionMedia>
        <url>http://localhost:8082/api/ciudades/644b0ad7-cb45-4ff0-9d1d-0d15d831a568/aparcamientos/628ca35d5d03cf4ffab21b42</url>
    </aparcamientos>
    <aparcamientos>
        <id>628ca35d5d03cf4ffab21b43</id>
        <direccion>POSTAS</direccion>
        <latitud>42.84541127498939</latitud>
        <longitud>-2.666422066720557</longitud>
        <numValoraciones>0</numValoraciones>
        <calificacionMedia>0.0</calificacionMedia>
        <url>http://localhost:8082/api/ciudades/644b0ad7-cb45-4ff0-9d1d-0d15d831a568/aparcamientos/628ca35d5d03cf4ffab21b43</url>
    </aparcamientos>
    <aparcamientos>
        <id>628ca35d5d03cf4ffab21b44</id>
        <direccion>ALBERTO SCHOMMER</direccion>
        <latitud>42.83687917734123</latitud>
        <longitud>-2.6663117891414</longitud>
        <numValoraciones>0</numValoraciones>
        <calificacionMedia>0.0</calificacionMedia>
        <url>http://localhost:8082/api/ciudades/644b0ad7-cb45-4ff0-9d1d-0d15d831a568/aparcamientos/628ca35d5d03cf4ffab21b44</url>
    </aparcamientos>
    <aparcamientos>
        <id>628ca35d5d03cf4ffab21b45</id>
        <direccion>TXIRULA</direccion>
        <latitud>42.83754400038507</latitud>
        <longitud>-2.665900926923225</longitud>
        <numValoraciones>0</numValoraciones>
        <calificacionMedia>0.0</calificacionMedia>
        <url>http://localhost:8082/api/ciudades/644b0ad7-cb45-4ff0-9d1d-0d15d831a568/aparcamientos/628ca35d5d03cf4ffab21b45</url>
    </aparcamientos>
    <aparcamientos>
        <id>628ca35d5d03cf4ffab21b46</id>
        <direccion>TXALAPARTA</direccion>
        <latitud>42.83735189243659</latitud>
        <longitud>-2.665187882424581</longitud>
        <numValoraciones>0</numValoraciones>
        <calificacionMedia>0.0</calificacionMedia>
        <url>http://localhost:8082/api/ciudades/644b0ad7-cb45-4ff0-9d1d-0d15d831a568/aparcamientos/628ca35d5d03cf4ffab21b46</url>
    </aparcamientos>
    <aparcamientos>
        <id>628ca35d5d03cf4ffab21b47</id>
        <direccion>ARANTZABELA</direccion>
        <latitud>42.84909956134644</latitud>
        <longitud>-2.659867902302362</longitud>
        <numValoraciones>0</numValoraciones>
        <calificacionMedia>0.0</calificacionMedia>
        <url>http://localhost:8082/api/ciudades/644b0ad7-cb45-4ff0-9d1d-0d15d831a568/aparcamientos/628ca35d5d03cf4ffab21b47</url>
    </aparcamientos>
    <aparcamientos>
        <id>628ca35d5d03cf4ffab21b48</id>
        <direccion>EXTREMADURA</direccion>
        <latitud>42.84885265400742</latitud>
        <longitud>-2.660086993452848</longitud>
        <numValoraciones>0</numValoraciones>
        <calificacionMedia>0.0</calificacionMedia>
        <url>http://localhost:8082/api/ciudades/644b0ad7-cb45-4ff0-9d1d-0d15d831a568/aparcamientos/628ca35d5d03cf4ffab21b48</url>
    </aparcamientos>
    <aparcamientos>
        <id>628ca35d5d03cf4ffab21b49</id>
        <direccion>PIO XII</direccion>
        <latitud>42.84255627295548</latitud>
        <longitud>-2.666279717547337</longitud>
        <numValoraciones>0</numValoraciones>
        <calificacionMedia>0.0</calificacionMedia>
        <url>http://localhost:8082/api/ciudades/644b0ad7-cb45-4ff0-9d1d-0d15d831a568/aparcamientos/628ca35d5d03cf4ffab21b49</url>
    </aparcamientos>
    <aparcamientos>
        <id>628ca35d5d03cf4ffab21b4a</id>
        <direccion>PIO XII</direccion>
        <latitud>42.84401279538775</latitud>
        <longitud>-2.665841586347591</longitud>
        <numValoraciones>0</numValoraciones>
        <calificacionMedia>0.0</calificacionMedia>
        <url>http://localhost:8082/api/ciudades/644b0ad7-cb45-4ff0-9d1d-0d15d831a568/aparcamientos/628ca35d5d03cf4ffab21b4a</url>
    </aparcamientos>
    <aparcamientos>
        <id>628ca35d5d03cf4ffab21b4b</id>
        <direccion>AMURRIO</direccion>
        <latitud>42.85649831077041</latitud>
        <longitud>-2.667635299003713</longitud>
        <numValoraciones>0</numValoraciones>
        <calificacionMedia>0.0</calificacionMedia>
        <url>http://localhost:8082/api/ciudades/644b0ad7-cb45-4ff0-9d1d-0d15d831a568/aparcamientos/628ca35d5d03cf4ffab21b4b</url>
    </aparcamientos>
    <aparcamientos>
        <id>628ca35d5d03cf4ffab21b4c</id>
        <direccion>EULOGIO SERDÁN</direccion>
        <latitud>42.85183138890685</latitud>
        <longitud>-2.67405751776024</longitud>
        <numValoraciones>0</numValoraciones>
        <calificacionMedia>0.0</calificacionMedia>
        <url>http://localhost:8082/api/ciudades/644b0ad7-cb45-4ff0-9d1d-0d15d831a568/aparcamientos/628ca35d5d03cf4ffab21b4c</url>
    </aparcamientos>
    <aparcamientos>
        <id>628ca35d5d03cf4ffab21b4d</id>
        <direccion>EULOGIO SERDÁN</direccion>
        <latitud>42.85215912519389</latitud>
        <longitud>-2.675444968183947</longitud>
        <numValoraciones>0</numValoraciones>
        <calificacionMedia>0.0</calificacionMedia>
        <url>http://localhost:8082/api/ciudades/644b0ad7-cb45-4ff0-9d1d-0d15d831a568/aparcamientos/628ca35d5d03cf4ffab21b4d</url>
    </aparcamientos>
    <aparcamientos>
        <id>628ca35d5d03cf4ffab21b4e</id>
        <direccion>BEETHOVEN</direccion>
        <latitud>42.85258772287266</latitud>
        <longitud>-2.677838950823524</longitud>
        <numValoraciones>0</numValoraciones>
        <calificacionMedia>0.0</calificacionMedia>
        <url>http://localhost:8082/api/ciudades/644b0ad7-cb45-4ff0-9d1d-0d15d831a568/aparcamientos/628ca35d5d03cf4ffab21b4e</url>
    </aparcamientos>
    <aparcamientos>
        <id>628ca35d5d03cf4ffab21b4f</id>
        <direccion>DUQUE DE WELLINGTON</direccion>
        <latitud>42.86017787343921</latitud>
        <longitud>-2.692095087233463</longitud>
        <numValoraciones>0</numValoraciones>
        <calificacionMedia>0.0</calificacionMedia>
        <url>http://localhost:8082/api/ciudades/644b0ad7-cb45-4ff0-9d1d-0d15d831a568/aparcamientos/628ca35d5d03cf4ffab21b4f</url>
    </aparcamientos>
    <aparcamientos>
        <id>628ca35d5d03cf4ffab21b50</id>
        <direccion>JACINTO BENAVENTE</direccion>
        <latitud>42.84487648490619</latitud>
        <longitud>-2.65815483650381</longitud>
        <numValoraciones>0</numValoraciones>
        <calificacionMedia>0.0</calificacionMedia>
        <url>http://localhost:8082/api/ciudades/644b0ad7-cb45-4ff0-9d1d-0d15d831a568/aparcamientos/628ca35d5d03cf4ffab21b50</url>
    </aparcamientos>
    <aparcamientos>
        <id>628ca35d5d03cf4ffab21b51</id>
        <direccion>PALENCIA</direccion>
        <latitud>42.851172586816</latitud>
        <longitud>-2.663847891040466</longitud>
        <numValoraciones>0</numValoraciones>
        <calificacionMedia>0.0</calificacionMedia>
        <url>http://localhost:8082/api/ciudades/644b0ad7-cb45-4ff0-9d1d-0d15d831a568/aparcamientos/628ca35d5d03cf4ffab21b51</url>
    </aparcamientos>
    <aparcamientos>
        <id>628ca35d5d03cf4ffab21b52</id>
        <direccion>ANDALUCÍA</direccion>
        <latitud>42.84934543521647</latitud>
        <longitud>-2.658559580929591</longitud>
        <numValoraciones>0</numValoraciones>
        <calificacionMedia>0.0</calificacionMedia>
        <url>http://localhost:8082/api/ciudades/644b0ad7-cb45-4ff0-9d1d-0d15d831a568/aparcamientos/628ca35d5d03cf4ffab21b52</url>
    </aparcamientos>
    <aparcamientos>
        <id>628ca35d5d03cf4ffab21b53</id>
        <direccion>ANDALUCÍA</direccion>
        <latitud>42.84968513839372</latitud>
        <longitud>-2.65855238225056</longitud>
        <numValoraciones>0</numValoraciones>
        <calificacionMedia>0.0</calificacionMedia>
        <url>http://localhost:8082/api/ciudades/644b0ad7-cb45-4ff0-9d1d-0d15d831a568/aparcamientos/628ca35d5d03cf4ffab21b53</url>
    </aparcamientos>
    <aparcamientos>
        <id>628ca35d5d03cf4ffab21b54</id>
        <direccion>HORTALEZA</direccion>
        <latitud>42.85240752188474</latitud>
        <longitud>-2.665226285056108</longitud>
        <numValoraciones>0</numValoraciones>
        <calificacionMedia>0.0</calificacionMedia>
        <url>http://localhost:8082/api/ciudades/644b0ad7-cb45-4ff0-9d1d-0d15d831a568/aparcamientos/628ca35d5d03cf4ffab21b54</url>
    </aparcamientos>
    <aparcamientos>
        <id>628ca35d5d03cf4ffab21b55</id>
        <direccion>BADAIA</direccion>
        <latitud>42.85083012446597</latitud>
        <longitud>-2.677529362326083</longitud>
        <numValoraciones>0</numValoraciones>
        <calificacionMedia>0.0</calificacionMedia>
        <url>http://localhost:8082/api/ciudades/644b0ad7-cb45-4ff0-9d1d-0d15d831a568/aparcamientos/628ca35d5d03cf4ffab21b55</url>
    </aparcamientos>
    <aparcamientos>
        <id>628ca35d5d03cf4ffab21b56</id>
        <direccion>BIZENTA MOGEL</direccion>
        <latitud>42.84561094599196</latitud>
        <longitud>-2.681654109870307</longitud>
        <numValoraciones>0</numValoraciones>
        <calificacionMedia>0.0</calificacionMedia>
        <url>http://localhost:8082/api/ciudades/644b0ad7-cb45-4ff0-9d1d-0d15d831a568/aparcamientos/628ca35d5d03cf4ffab21b56</url>
    </aparcamientos>
    <aparcamientos>
        <id>628ca35d5d03cf4ffab21b57</id>
        <direccion>BIZENTA MOGEL</direccion>
        <latitud>42.84384798618091</latitud>
        <longitud>-2.680559622730491</longitud>
        <numValoraciones>0</numValoraciones>
        <calificacionMedia>0.0</calificacionMedia>
        <url>http://localhost:8082/api/ciudades/644b0ad7-cb45-4ff0-9d1d-0d15d831a568/aparcamientos/628ca35d5d03cf4ffab21b57</url>
    </aparcamientos>
    <aparcamientos>
        <id>628ca35d5d03cf4ffab21b58</id>
        <direccion>DONOSTIA</direccion>
        <latitud>42.86323417466958</latitud>
        <longitud>-2.689617673037178</longitud>
        <numValoraciones>0</numValoraciones>
        <calificacionMedia>0.0</calificacionMedia>
        <url>http://localhost:8082/api/ciudades/644b0ad7-cb45-4ff0-9d1d-0d15d831a568/aparcamientos/628ca35d5d03cf4ffab21b58</url>
    </aparcamientos>
    <aparcamientos>
        <id>628ca35d5d03cf4ffab21b59</id>
        <direccion>ASTRONOMOS</direccion>
        <latitud>42.84230280122964</latitud>
        <longitud>-2.655354032482577</longitud>
        <numValoraciones>0</numValoraciones>
        <calificacionMedia>0.0</calificacionMedia>
        <url>http://localhost:8082/api/ciudades/644b0ad7-cb45-4ff0-9d1d-0d15d831a568/aparcamientos/628ca35d5d03cf4ffab21b59</url>
    </aparcamientos>
    <aparcamientos>
        <id>628ca35d5d03cf4ffab21b5a</id>
        <direccion>VALLADOLID</direccion>
        <latitud>42.85338416589696</latitud>
        <longitud>-2.664274394182575</longitud>
        <numValoraciones>0</numValoraciones>
        <calificacionMedia>0.0</calificacionMedia>
        <url>http://localhost:8082/api/ciudades/644b0ad7-cb45-4ff0-9d1d-0d15d831a568/aparcamientos/628ca35d5d03cf4ffab21b5a</url>
    </aparcamientos>
    <aparcamientos>
        <id>628ca35d5d03cf4ffab21b5b</id>
        <direccion>TELESFORO DE ARANZADI</direccion>
        <latitud>42.85138733859024</latitud>
        <longitud>-2.684618879552787</longitud>
        <numValoraciones>0</numValoraciones>
        <calificacionMedia>0.0</calificacionMedia>
        <url>http://localhost:8082/api/ciudades/644b0ad7-cb45-4ff0-9d1d-0d15d831a568/aparcamientos/628ca35d5d03cf4ffab21b5b</url>
    </aparcamientos>
    <aparcamientos>
        <id>628ca35d5d03cf4ffab21b5c</id>
        <direccion>PAULA MONTAL</direccion>
        <latitud>42.85531834967733</latitud>
        <longitud>-2.702253269465731</longitud>
        <numValoraciones>0</numValoraciones>
        <calificacionMedia>0.0</calificacionMedia>
        <url>http://localhost:8082/api/ciudades/644b0ad7-cb45-4ff0-9d1d-0d15d831a568/aparcamientos/628ca35d5d03cf4ffab21b5c</url>
    </aparcamientos>
    <aparcamientos>
        <id>628ca35d5d03cf4ffab21b5d</id>
        <direccion>JUNTAS GENERALES</direccion>
        <latitud>42.86450777993856</latitud>
        <longitud>-2.680978638897177</longitud>
        <numValoraciones>0</numValoraciones>
        <calificacionMedia>0.0</calificacionMedia>
        <url>http://localhost:8082/api/ciudades/644b0ad7-cb45-4ff0-9d1d-0d15d831a568/aparcamientos/628ca35d5d03cf4ffab21b5d</url>
    </aparcamientos>
    <aparcamientos>
        <id>628ca35d5d03cf4ffab21b5e</id>
        <direccion>PZA. AMADEO GARCIA SALAZAR</direccion>
        <latitud>42.83807648248094</latitud>
        <longitud>-2.685836776497393</longitud>
        <numValoraciones>0</numValoraciones>
        <calificacionMedia>0.0</calificacionMedia>
        <url>http://localhost:8082/api/ciudades/644b0ad7-cb45-4ff0-9d1d-0d15d831a568/aparcamientos/628ca35d5d03cf4ffab21b5e</url>
    </aparcamientos>
    <aparcamientos>
        <id>628ca35d5d03cf4ffab21b5f</id>
        <direccion>PZA. AMADEO GARCIA SALAZAR</direccion>
        <latitud>42.83800633380517</latitud>
        <longitud>-2.685857852050912</longitud>
        <numValoraciones>0</numValoraciones>
        <calificacionMedia>0.0</calificacionMedia>
        <url>http://localhost:8082/api/ciudades/644b0ad7-cb45-4ff0-9d1d-0d15d831a568/aparcamientos/628ca35d5d03cf4ffab21b5f</url>
    </aparcamientos>
    <aparcamientos>
        <id>628ca35d5d03cf4ffab21b60</id>
        <direccion>PZA. AMADEO GARCIA SALAZAR</direccion>
        <latitud>42.83768738965179</latitud>
        <longitud>-2.687319154538355</longitud>
        <numValoraciones>0</numValoraciones>
        <calificacionMedia>0.0</calificacionMedia>
        <url>http://localhost:8082/api/ciudades/644b0ad7-cb45-4ff0-9d1d-0d15d831a568/aparcamientos/628ca35d5d03cf4ffab21b60</url>
    </aparcamientos>
    <aparcamientos>
        <id>628ca35d5d03cf4ffab21b61</id>
        <direccion>PZA. AMADEO GARCIA SALAZAR</direccion>
        <latitud>42.83769174222375</latitud>
        <longitud>-2.687247709316932</longitud>
        <numValoraciones>0</numValoraciones>
        <calificacionMedia>0.0</calificacionMedia>
        <url>http://localhost:8082/api/ciudades/644b0ad7-cb45-4ff0-9d1d-0d15d831a568/aparcamientos/628ca35d5d03cf4ffab21b61</url>
    </aparcamientos>
    <aparcamientos>
        <id>628ca35d5d03cf4ffab21b62</id>
        <direccion>PZA. AMADEO GARCIA SALAZAR</direccion>
        <latitud>42.83768800611717</latitud>
        <longitud>-2.687174930727279</longitud>
        <numValoraciones>0</numValoraciones>
        <calificacionMedia>0.0</calificacionMedia>
        <url>http://localhost:8082/api/ciudades/644b0ad7-cb45-4ff0-9d1d-0d15d831a568/aparcamientos/628ca35d5d03cf4ffab21b62</url>
    </aparcamientos>
    <aparcamientos>
        <id>628ca35d5d03cf4ffab21b63</id>
        <direccion>PZA. AMADEO GARCIA SALAZAR</direccion>
        <latitud>42.83766409013778</latitud>
        <longitud>-2.687072250058242</longitud>
        <numValoraciones>0</numValoraciones>
        <calificacionMedia>0.0</calificacionMedia>
        <url>http://localhost:8082/api/ciudades/644b0ad7-cb45-4ff0-9d1d-0d15d831a568/aparcamientos/628ca35d5d03cf4ffab21b63</url>
    </aparcamientos>
    <aparcamientos>
        <id>628ca35d5d03cf4ffab21b64</id>
        <direccion>PZA. AMADEO GARCIA SALAZAR</direccion>
        <latitud>42.83765312057181</latitud>
        <longitud>-2.686966433982</longitud>
        <numValoraciones>0</numValoraciones>
        <calificacionMedia>0.0</calificacionMedia>
        <url>http://localhost:8082/api/ciudades/644b0ad7-cb45-4ff0-9d1d-0d15d831a568/aparcamientos/628ca35d5d03cf4ffab21b64</url>
    </aparcamientos>
    <aparcamientos>
        <id>628ca35d5d03cf4ffab21b65</id>
        <direccion>PZA. AMADEO GARCIA SALAZAR</direccion>
        <latitud>42.83764881564271</latitud>
        <longitud>-2.686856953721569</longitud>
        <numValoraciones>0</numValoraciones>
        <calificacionMedia>0.0</calificacionMedia>
        <url>http://localhost:8082/api/ciudades/644b0ad7-cb45-4ff0-9d1d-0d15d831a568/aparcamientos/628ca35d5d03cf4ffab21b65</url>
    </aparcamientos>
    <aparcamientos>
        <id>628ca35d5d03cf4ffab21b66</id>
        <direccion>PLAZA SANTA BÁRBARA</direccion>
        <latitud>42.84420518809817</latitud>
        <longitud>-2.667726801918937</longitud>
        <numValoraciones>0</numValoraciones>
        <calificacionMedia>0.0</calificacionMedia>
        <url>http://localhost:8082/api/ciudades/644b0ad7-cb45-4ff0-9d1d-0d15d831a568/aparcamientos/628ca35d5d03cf4ffab21b66</url>
    </aparcamientos>
    <aparcamientos>
        <id>628ca35d5d03cf4ffab21b67</id>
        <direccion>LOS HERRÁN</direccion>
        <latitud>42.84598632235051</latitud>
        <longitud>-2.665304316463576</longitud>
        <numValoraciones>0</numValoraciones>
        <calificacionMedia>0.0</calificacionMedia>
        <url>http://localhost:8082/api/ciudades/644b0ad7-cb45-4ff0-9d1d-0d15d831a568/aparcamientos/628ca35d5d03cf4ffab21b67</url>
    </aparcamientos>
    <aparcamientos>
        <id>628ca35d5d03cf4ffab21b68</id>
        <direccion>PINTOR VICENTE ABREU</direccion>
        <latitud>42.84958603929809</latitud>
        <longitud>-2.683737666096824</longitud>
        <numValoraciones>0</numValoraciones>
        <calificacionMedia>0.0</calificacionMedia>
        <url>http://localhost:8082/api/ciudades/644b0ad7-cb45-4ff0-9d1d-0d15d831a568/aparcamientos/628ca35d5d03cf4ffab21b68</url>
    </aparcamientos>
    <aparcamientos>
        <id>628ca35d5d03cf4ffab21b69</id>
        <direccion>PINTOR VICENTE ABREU</direccion>
        <latitud>42.84959050232497</latitud>
        <longitud>-2.683774832316843</longitud>
        <numValoraciones>0</numValoraciones>
        <calificacionMedia>0.0</calificacionMedia>
        <url>http://localhost:8082/api/ciudades/644b0ad7-cb45-4ff0-9d1d-0d15d831a568/aparcamientos/628ca35d5d03cf4ffab21b69</url>
    </aparcamientos>
    <aparcamientos>
        <id>628ca35d5d03cf4ffab21b6a</id>
        <direccion>PINTOR VICENTE ABREU</direccion>
        <latitud>42.84959182586363</latitud>
        <longitud>-2.683823331826669</longitud>
        <numValoraciones>0</numValoraciones>
        <calificacionMedia>0.0</calificacionMedia>
        <url>http://localhost:8082/api/ciudades/644b0ad7-cb45-4ff0-9d1d-0d15d831a568/aparcamientos/628ca35d5d03cf4ffab21b6a</url>
    </aparcamientos>
    <aparcamientos>
        <id>628ca35d5d03cf4ffab21b6b</id>
        <direccion>PINTOR VICENTE ABREU</direccion>
        <latitud>42.84960064530191</latitud>
        <longitud>-2.683859398819612</longitud>
        <numValoraciones>0</numValoraciones>
        <calificacionMedia>0.0</calificacionMedia>
        <url>http://localhost:8082/api/ciudades/644b0ad7-cb45-4ff0-9d1d-0d15d831a568/aparcamientos/628ca35d5d03cf4ffab21b6b</url>
    </aparcamientos>
    <aparcamientos>
        <id>628ca35d5d03cf4ffab21b6c</id>
        <direccion>PLAZUELA DE LA ESTACIÓN</direccion>
        <latitud>42.841604755994</latitud>
        <longitud>-2.672423282915452</longitud>
        <numValoraciones>0</numValoraciones>
        <calificacionMedia>0.0</calificacionMedia>
        <url>http://localhost:8082/api/ciudades/644b0ad7-cb45-4ff0-9d1d-0d15d831a568/aparcamientos/628ca35d5d03cf4ffab21b6c</url>
    </aparcamientos>
    <aparcamientos>
        <id>628ca35d5d03cf4ffab21b6d</id>
        <direccion>PINTOR DIAZ DE OLANO</direccion>
        <latitud>42.84496148283677</latitud>
        <longitud>-2.687482202474774</longitud>
        <numValoraciones>0</numValoraciones>
        <calificacionMedia>0.0</calificacionMedia>
        <url>http://localhost:8082/api/ciudades/644b0ad7-cb45-4ff0-9d1d-0d15d831a568/aparcamientos/628ca35d5d03cf4ffab21b6d</url>
    </aparcamientos>
    <aparcamientos>
        <id>628ca35d5d03cf4ffab21b6e</id>
        <direccion>PINTOR DIAZ DE OLANO</direccion>
        <latitud>42.84479956128133</latitud>
        <longitud>-2.685429323401656</longitud>
        <numValoraciones>0</numValoraciones>
        <calificacionMedia>0.0</calificacionMedia>
        <url>http://localhost:8082/api/ciudades/644b0ad7-cb45-4ff0-9d1d-0d15d831a568/aparcamientos/628ca35d5d03cf4ffab21b6e</url>
    </aparcamientos>
    <aparcamientos>
        <id>628ca35d5d03cf4ffab21b6f</id>
        <direccion>ABENDAÑO</direccion>
        <latitud>42.84472112124694</latitud>
        <longitud>-2.684182261301562</longitud>
        <numValoraciones>0</numValoraciones>
        <calificacionMedia>0.0</calificacionMedia>
        <url>http://localhost:8082/api/ciudades/644b0ad7-cb45-4ff0-9d1d-0d15d831a568/aparcamientos/628ca35d5d03cf4ffab21b6f</url>
    </aparcamientos>
    <aparcamientos>
        <id>628ca35d5d03cf4ffab21b70</id>
        <direccion>MADRID</direccion>
        <latitud>42.8569602467354</latitud>
        <longitud>-2.658729176044707</longitud>
        <numValoraciones>0</numValoraciones>
        <calificacionMedia>0.0</calificacionMedia>
        <url>http://localhost:8082/api/ciudades/644b0ad7-cb45-4ff0-9d1d-0d15d831a568/aparcamientos/628ca35d5d03cf4ffab21b70</url>
    </aparcamientos>
    <aparcamientos>
        <id>628ca35d5d03cf4ffab21b71</id>
        <direccion>MADRID</direccion>
        <latitud>42.8569795267908</latitud>
        <longitud>-2.658766541146207</longitud>
        <numValoraciones>0</numValoraciones>
        <calificacionMedia>0.0</calificacionMedia>
        <url>http://localhost:8082/api/ciudades/644b0ad7-cb45-4ff0-9d1d-0d15d831a568/aparcamientos/628ca35d5d03cf4ffab21b71</url>
    </aparcamientos>
    <aparcamientos>
        <id>628ca35d5d03cf4ffab21b72</id>
        <direccion>MADRID</direccion>
        <latitud>42.85699959102314</latitud>
        <longitud>-2.658799013170843</longitud>
        <numValoraciones>0</numValoraciones>
        <calificacionMedia>0.0</calificacionMedia>
        <url>http://localhost:8082/api/ciudades/644b0ad7-cb45-4ff0-9d1d-0d15d831a568/aparcamientos/628ca35d5d03cf4ffab21b72</url>
    </aparcamientos>
    <aparcamientos>
        <id>628ca35d5d03cf4ffab21b73</id>
        <direccion>MADRID</direccion>
        <latitud>42.85702084250798</latitud>
        <longitud>-2.65882767806069</longitud>
        <numValoraciones>0</numValoraciones>
        <calificacionMedia>0.0</calificacionMedia>
        <url>http://localhost:8082/api/ciudades/644b0ad7-cb45-4ff0-9d1d-0d15d831a568/aparcamientos/628ca35d5d03cf4ffab21b73</url>
    </aparcamientos>
    <aparcamientos>
        <id>628ca35d5d03cf4ffab21b74</id>
        <direccion>MADRID</direccion>
        <latitud>42.85704369221543</latitud>
        <longitud>-2.658856876418887</longitud>
        <numValoraciones>0</numValoraciones>
        <calificacionMedia>0.0</calificacionMedia>
        <url>http://localhost:8082/api/ciudades/644b0ad7-cb45-4ff0-9d1d-0d15d831a568/aparcamientos/628ca35d5d03cf4ffab21b74</url>
    </aparcamientos>
    <aparcamientos>
        <id>628ca35d5d03cf4ffab21b75</id>
        <direccion>MADRID</direccion>
        <latitud>42.85706934934653</latitud>
        <longitud>-2.658889862416797</longitud>
        <numValoraciones>0</numValoraciones>
        <calificacionMedia>0.0</calificacionMedia>
        <url>http://localhost:8082/api/ciudades/644b0ad7-cb45-4ff0-9d1d-0d15d831a568/aparcamientos/628ca35d5d03cf4ffab21b75</url>
    </aparcamientos>
    <aparcamientos>
        <id>628ca35d5d03cf4ffab21b76</id>
        <direccion>MADRID</direccion>
        <latitud>42.85709260281971</latitud>
        <longitud>-2.65892068778717</longitud>
        <numValoraciones>0</numValoraciones>
        <calificacionMedia>0.0</calificacionMedia>
        <url>http://localhost:8082/api/ciudades/644b0ad7-cb45-4ff0-9d1d-0d15d831a568/aparcamientos/628ca35d5d03cf4ffab21b76</url>
    </aparcamientos>
    <aparcamientos>
        <id>628ca35d5d03cf4ffab21b77</id>
        <direccion>AVDA. DE LOS OLMOS</direccion>
        <latitud>42.8748125244985</latitud>
        <longitud>-2.655446311605261</longitud>
        <numValoraciones>0</numValoraciones>
        <calificacionMedia>0.0</calificacionMedia>
        <url>http://localhost:8082/api/ciudades/644b0ad7-cb45-4ff0-9d1d-0d15d831a568/aparcamientos/628ca35d5d03cf4ffab21b77</url>
    </aparcamientos>
    <aparcamientos>
        <id>628ca35d5d03cf4ffab21b78</id>
        <direccion>AVDA. DE LOS OLMOS</direccion>
        <latitud>42.87480143759476</latitud>
        <longitud>-2.65539766975767</longitud>
        <numValoraciones>0</numValoraciones>
        <calificacionMedia>0.0</calificacionMedia>
        <url>http://localhost:8082/api/ciudades/644b0ad7-cb45-4ff0-9d1d-0d15d831a568/aparcamientos/628ca35d5d03cf4ffab21b78</url>
    </aparcamientos>
    <aparcamientos>
        <id>628ca35d5d03cf4ffab21b79</id>
        <direccion>AVDA. DE LOS OLMOS</direccion>
        <latitud>42.87477790801479</latitud>
        <longitud>-2.655345715421989</longitud>
        <numValoraciones>0</numValoraciones>
        <calificacionMedia>0.0</calificacionMedia>
        <url>http://localhost:8082/api/ciudades/644b0ad7-cb45-4ff0-9d1d-0d15d831a568/aparcamientos/628ca35d5d03cf4ffab21b79</url>
    </aparcamientos>
    <aparcamientos>
        <id>628ca35d5d03cf4ffab21b7a</id>
        <direccion>AVDA. DE LOS OLMOS</direccion>
        <latitud>42.87476869353862</latitud>
        <longitud>-2.65528819132043</longitud>
        <numValoraciones>0</numValoraciones>
        <calificacionMedia>0.0</calificacionMedia>
        <url>http://localhost:8082/api/ciudades/644b0ad7-cb45-4ff0-9d1d-0d15d831a568/aparcamientos/628ca35d5d03cf4ffab21b7a</url>
    </aparcamientos>
    <aparcamientos>
        <id>628ca35d5d03cf4ffab21b7b</id>
        <direccion>AVDA. DE LOS OLMOS</direccion>
        <latitud>42.87474863306842</latitud>
        <longitud>-2.655232158914986</longitud>
        <numValoraciones>0</numValoraciones>
        <calificacionMedia>0.0</calificacionMedia>
        <url>http://localhost:8082/api/ciudades/644b0ad7-cb45-4ff0-9d1d-0d15d831a568/aparcamientos/628ca35d5d03cf4ffab21b7b</url>
    </aparcamientos>
    <aparcamientos>
        <id>628ca35d5d03cf4ffab21b7c</id>
        <direccion>AVDA. DE LOS OLMOS</direccion>
        <latitud>42.8747325734475</latitud>
        <longitud>-2.655183546065473</longitud>
        <numValoraciones>0</numValoraciones>
        <calificacionMedia>0.0</calificacionMedia>
        <url>http://localhost:8082/api/ciudades/644b0ad7-cb45-4ff0-9d1d-0d15d831a568/aparcamientos/628ca35d5d03cf4ffab21b7c</url>
    </aparcamientos>
    <aparcamientos>
        <id>628ca35d5d03cf4ffab21b7d</id>
        <direccion>AVDA. DE LOS OLMOS</direccion>
        <latitud>42.87471501349901</latitud>
        <longitud>-2.6551322332628</longitud>
        <numValoraciones>0</numValoraciones>
        <calificacionMedia>0.0</calificacionMedia>
        <url>http://localhost:8082/api/ciudades/644b0ad7-cb45-4ff0-9d1d-0d15d831a568/aparcamientos/628ca35d5d03cf4ffab21b7d</url>
    </aparcamientos>
    <aparcamientos>
        <id>628ca35d5d03cf4ffab21b7e</id>
        <direccion>BARRATXI</direccion>
        <latitud>42.87537893156564</latitud>
        <longitud>-2.647982958151633</longitud>
        <numValoraciones>0</numValoraciones>
        <calificacionMedia>0.0</calificacionMedia>
        <url>http://localhost:8082/api/ciudades/644b0ad7-cb45-4ff0-9d1d-0d15d831a568/aparcamientos/628ca35d5d03cf4ffab21b7e</url>
    </aparcamientos>
    <aparcamientos>
        <id>628ca35d5d03cf4ffab21b7f</id>
        <direccion>BARRATXI</direccion>
        <latitud>42.87536322659624</latitud>
        <longitud>-2.648027848010848</longitud>
        <numValoraciones>0</numValoraciones>
        <calificacionMedia>0.0</calificacionMedia>
        <url>http://localhost:8082/api/ciudades/644b0ad7-cb45-4ff0-9d1d-0d15d831a568/aparcamientos/628ca35d5d03cf4ffab21b7f</url>
    </aparcamientos>
    <aparcamientos>
        <id>628ca35d5d03cf4ffab21b80</id>
        <direccion>BARRATXI</direccion>
        <latitud>42.87532016629525</latitud>
        <longitud>-2.647988962328566</longitud>
        <numValoraciones>0</numValoraciones>
        <calificacionMedia>0.0</calificacionMedia>
        <url>http://localhost:8082/api/ciudades/644b0ad7-cb45-4ff0-9d1d-0d15d831a568/aparcamientos/628ca35d5d03cf4ffab21b80</url>
    </aparcamientos>
    <aparcamientos>
        <id>628ca35d5d03cf4ffab21b81</id>
        <direccion>BARRATXI</direccion>
        <latitud>42.8752973286764</latitud>
        <longitud>-2.648031063105468</longitud>
        <numValoraciones>0</numValoraciones>
        <calificacionMedia>0.0</calificacionMedia>
        <url>http://localhost:8082/api/ciudades/644b0ad7-cb45-4ff0-9d1d-0d15d831a568/aparcamientos/628ca35d5d03cf4ffab21b81</url>
    </aparcamientos>
    <aparcamientos>
        <id>628ca35d5d03cf4ffab21b82</id>
        <direccion>BARRATXI</direccion>
        <latitud>42.87525426837993</latitud>
        <longitud>-2.647992178686385</longitud>
        <numValoraciones>0</numValoraciones>
        <calificacionMedia>0.0</calificacionMedia>
        <url>http://localhost:8082/api/ciudades/644b0ad7-cb45-4ff0-9d1d-0d15d831a568/aparcamientos/628ca35d5d03cf4ffab21b82</url>
    </aparcamientos>
    <aparcamientos>
        <id>628ca35d5d03cf4ffab21b83</id>
        <direccion>BARRATXI</direccion>
        <latitud>42.87523929609805</latitud>
        <longitud>-2.64803139290486</longitud>
        <numValoraciones>0</numValoraciones>
        <calificacionMedia>0.0</calificacionMedia>
        <url>http://localhost:8082/api/ciudades/644b0ad7-cb45-4ff0-9d1d-0d15d831a568/aparcamientos/628ca35d5d03cf4ffab21b83</url>
    </aparcamientos>
    <aparcamientos>
        <id>628ca35d5d03cf4ffab21b84</id>
        <direccion>BARRATXI</direccion>
        <latitud>42.8751962358014</latitud>
        <longitud>-2.647992508521715</longitud>
        <numValoraciones>0</numValoraciones>
        <calificacionMedia>0.0</calificacionMedia>
        <url>http://localhost:8082/api/ciudades/644b0ad7-cb45-4ff0-9d1d-0d15d831a568/aparcamientos/628ca35d5d03cf4ffab21b84</url>
    </aparcamientos>
    <aparcamientos>
        <id>628ca35d5d03cf4ffab21b85</id>
        <direccion>JUSTO VÉLEZ DE ELORRIAGA</direccion>
        <latitud>42.84033058368552</latitud>
        <longitud>-2.671310869314494</longitud>
        <numValoraciones>0</numValoraciones>
        <calificacionMedia>0.0</calificacionMedia>
        <url>http://localhost:8082/api/ciudades/644b0ad7-cb45-4ff0-9d1d-0d15d831a568/aparcamientos/628ca35d5d03cf4ffab21b85</url>
    </aparcamientos>
    <aparcamientos>
        <id>628ca35d5d03cf4ffab21b86</id>
        <direccion>FUENTE DE LA SALUD</direccion>
        <latitud>42.8406823629513</latitud>
        <longitud>-2.662816692074431</longitud>
        <numValoraciones>0</numValoraciones>
        <calificacionMedia>0.0</calificacionMedia>
        <url>http://localhost:8082/api/ciudades/644b0ad7-cb45-4ff0-9d1d-0d15d831a568/aparcamientos/628ca35d5d03cf4ffab21b86</url>
    </aparcamientos>
    <aparcamientos>
        <id>628ca35d5d03cf4ffab21b87</id>
        <direccion>HERACLIO FOURNIER</direccion>
        <latitud>42.83894674520003</latitud>
        <longitud>-2.666381230639087</longitud>
        <numValoraciones>0</numValoraciones>
        <calificacionMedia>0.0</calificacionMedia>
        <url>http://localhost:8082/api/ciudades/644b0ad7-cb45-4ff0-9d1d-0d15d831a568/aparcamientos/628ca35d5d03cf4ffab21b87</url>
    </aparcamientos>
    <aparcamientos>
        <id>628ca35d5d03cf4ffab21b88</id>
        <direccion>RAMÓN RUBIAL</direccion>
        <latitud>42.85482530843875</latitud>
        <longitud>-2.695591090500293</longitud>
        <numValoraciones>0</numValoraciones>
        <calificacionMedia>0.0</calificacionMedia>
        <url>http://localhost:8082/api/ciudades/644b0ad7-cb45-4ff0-9d1d-0d15d831a568/aparcamientos/628ca35d5d03cf4ffab21b88</url>
    </aparcamientos>
    <aparcamientos>
        <id>628ca35d5d03cf4ffab21b89</id>
        <direccion>RAMÓN RUBIAL</direccion>
        <latitud>42.85457341689344</latitud>
        <longitud>-2.695546906840348</longitud>
        <numValoraciones>0</numValoraciones>
        <calificacionMedia>0.0</calificacionMedia>
        <url>http://localhost:8082/api/ciudades/644b0ad7-cb45-4ff0-9d1d-0d15d831a568/aparcamientos/628ca35d5d03cf4ffab21b89</url>
    </aparcamientos>
    <aparcamientos>
        <id>628ca35d5d03cf4ffab21b8a</id>
        <direccion>RAMÓN RUBIAL</direccion>
        <latitud>42.85458394049502</latitud>
        <longitud>-2.695478501739018</longitud>
        <numValoraciones>0</numValoraciones>
        <calificacionMedia>0.0</calificacionMedia>
        <url>http://localhost:8082/api/ciudades/644b0ad7-cb45-4ff0-9d1d-0d15d831a568/aparcamientos/628ca35d5d03cf4ffab21b8a</url>
    </aparcamientos>
    <aparcamientos>
        <id>628ca35d5d03cf4ffab21b8b</id>
        <direccion>RAMÓN RUBIAL</direccion>
        <latitud>42.85459728577477</latitud>
        <longitud>-2.695425802382189</longitud>
        <numValoraciones>0</numValoraciones>
        <calificacionMedia>0.0</calificacionMedia>
        <url>http://localhost:8082/api/ciudades/644b0ad7-cb45-4ff0-9d1d-0d15d831a568/aparcamientos/628ca35d5d03cf4ffab21b8b</url>
    </aparcamientos>
    <aparcamientos>
        <id>628ca35d5d03cf4ffab21b8c</id>
        <direccion>RAMÓN RUBIAL</direccion>
        <latitud>42.85460780930381</latitud>
        <longitud>-2.695357397234342</longitud>
        <numValoraciones>0</numValoraciones>
        <calificacionMedia>0.0</calificacionMedia>
        <url>http://localhost:8082/api/ciudades/644b0ad7-cb45-4ff0-9d1d-0d15d831a568/aparcamientos/628ca35d5d03cf4ffab21b8c</url>
    </aparcamientos>
    <aparcamientos>
        <id>628ca35d5d03cf4ffab21b8d</id>
        <direccion>RAMÓN RUBIAL</direccion>
        <latitud>42.85500634055574</latitud>
        <longitud>-2.693284754789927</longitud>
        <numValoraciones>0</numValoraciones>
        <calificacionMedia>0.0</calificacionMedia>
        <url>http://localhost:8082/api/ciudades/644b0ad7-cb45-4ff0-9d1d-0d15d831a568/aparcamientos/628ca35d5d03cf4ffab21b8d</url>
    </aparcamientos>
    <aparcamientos>
        <id>628ca35d5d03cf4ffab21b8e</id>
        <direccion>RAMÓN RUBIAL</direccion>
        <latitud>42.85501686279905</latitud>
        <longitud>-2.69321634761007</longitud>
        <numValoraciones>0</numValoraciones>
        <calificacionMedia>0.0</calificacionMedia>
        <url>http://localhost:8082/api/ciudades/644b0ad7-cb45-4ff0-9d1d-0d15d831a568/aparcamientos/628ca35d5d03cf4ffab21b8e</url>
    </aparcamientos>
    <aparcamientos>
        <id>628ca35d5d03cf4ffab21b8f</id>
        <direccion>RAMÓN RUBIAL</direccion>
        <latitud>42.85503020703721</latitud>
        <longitud>-2.693163648627477</longitud>
        <numValoraciones>0</numValoraciones>
        <calificacionMedia>0.0</calificacionMedia>
        <url>http://localhost:8082/api/ciudades/644b0ad7-cb45-4ff0-9d1d-0d15d831a568/aparcamientos/628ca35d5d03cf4ffab21b8f</url>
    </aparcamientos>
    <aparcamientos>
        <id>628ca35d5d03cf4ffab21b90</id>
        <direccion>BEETHOVEN</direccion>
        <latitud>42.85251927461351</latitud>
        <longitud>-2.677852791996088</longitud>
        <numValoraciones>0</numValoraciones>
        <calificacionMedia>0.0</calificacionMedia>
        <url>http://localhost:8082/api/ciudades/644b0ad7-cb45-4ff0-9d1d-0d15d831a568/aparcamientos/628ca35d5d03cf4ffab21b90</url>
    </aparcamientos>
    <aparcamientos>
        <id>628ca35d5d03cf4ffab21b91</id>
        <direccion>HORTALEZA</direccion>
        <latitud>42.85237317072532</latitud>
        <longitud>-2.665251405925815</longitud>
        <numValoraciones>0</numValoraciones>
        <calificacionMedia>0.0</calificacionMedia>
        <url>http://localhost:8082/api/ciudades/644b0ad7-cb45-4ff0-9d1d-0d15d831a568/aparcamientos/628ca35d5d03cf4ffab21b91</url>
    </aparcamientos>
    <aparcamientos>
        <id>628ca35d5d03cf4ffab21b92</id>
        <direccion>BIZENTA MOGEL</direccion>
        <latitud>42.84382386067672</latitud>
        <longitud>-2.680540494649296</longitud>
        <numValoraciones>0</numValoraciones>
        <calificacionMedia>0.0</calificacionMedia>
        <url>http://localhost:8082/api/ciudades/644b0ad7-cb45-4ff0-9d1d-0d15d831a568/aparcamientos/628ca35d5d03cf4ffab21b92</url>
    </aparcamientos>
    <aparcamientos>
        <id>628ca35d5d03cf4ffab21b93</id>
        <direccion>JUNTAS GENERALES</direccion>
        <latitud>42.86444885546064</latitud>
        <longitud>-2.681000567426775</longitud>
        <numValoraciones>0</numValoraciones>
        <calificacionMedia>0.0</calificacionMedia>
        <url>http://localhost:8082/api/ciudades/644b0ad7-cb45-4ff0-9d1d-0d15d831a568/aparcamientos/628ca35d5d03cf4ffab21b93</url>
    </aparcamientos>
    <aparcamientos>
        <id>628ca35d5d03cf4ffab21b94</id>
        <direccion>JUNTAS GENERALES</direccion>
        <latitud>42.86472858966732</latitud>
        <longitud>-2.680389971649478</longitud>
        <numValoraciones>0</numValoraciones>
        <calificacionMedia>0.0</calificacionMedia>
        <url>http://localhost:8082/api/ciudades/644b0ad7-cb45-4ff0-9d1d-0d15d831a568/aparcamientos/628ca35d5d03cf4ffab21b94</url>
    </aparcamientos>
    <aparcamientos>
        <id>628ca35d5d03cf4ffab21b95</id>
        <direccion>ARGENTINA</direccion>
        <latitud>42.85364207211055</latitud>
        <longitud>-2.68378055197851</longitud>
        <numValoraciones>0</numValoraciones>
        <calificacionMedia>0.0</calificacionMedia>
        <url>http://localhost:8082/api/ciudades/644b0ad7-cb45-4ff0-9d1d-0d15d831a568/aparcamientos/628ca35d5d03cf4ffab21b95</url>
    </aparcamientos>
    <aparcamientos>
        <id>628ca35d5d03cf4ffab21b96</id>
        <direccion>ESTELLA</direccion>
        <latitud>42.86037295786621</latitud>
        <longitud>-2.696506712157599</longitud>
        <numValoraciones>0</numValoraciones>
        <calificacionMedia>0.0</calificacionMedia>
        <url>http://localhost:8082/api/ciudades/644b0ad7-cb45-4ff0-9d1d-0d15d831a568/aparcamientos/628ca35d5d03cf4ffab21b96</url>
    </aparcamientos>
    <aparcamientos>
        <id>628ca35d5d03cf4ffab21b97</id>
        <direccion>ANDALUCÍA</direccion>
        <latitud>42.85050122108144</latitud>
        <longitud>-2.658462513651565</longitud>
        <numValoraciones>0</numValoraciones>
        <calificacionMedia>0.0</calificacionMedia>
        <url>http://localhost:8082/api/ciudades/644b0ad7-cb45-4ff0-9d1d-0d15d831a568/aparcamientos/628ca35d5d03cf4ffab21b97</url>
    </aparcamientos>
    <aparcamientos>
        <id>628ca35d5d03cf4ffab21b98</id>
        <direccion>AMIZKARRA</direccion>
        <latitud>42.85060788053914</latitud>
        <longitud>-2.662587684603818</longitud>
        <numValoraciones>0</numValoraciones>
        <calificacionMedia>0.0</calificacionMedia>
        <url>http://localhost:8082/api/ciudades/644b0ad7-cb45-4ff0-9d1d-0d15d831a568/aparcamientos/628ca35d5d03cf4ffab21b98</url>
    </aparcamientos>
    <aparcamientos>
        <id>628ca35d5d03cf4ffab21b99</id>
        <direccion>VALLADOLID</direccion>
        <latitud>42.85213457359829</latitud>
        <longitud>-2.66181901262573</longitud>
        <numValoraciones>0</numValoraciones>
        <calificacionMedia>0.0</calificacionMedia>
        <url>http://localhost:8082/api/ciudades/644b0ad7-cb45-4ff0-9d1d-0d15d831a568/aparcamientos/628ca35d5d03cf4ffab21b99</url>
    </aparcamientos>
    <aparcamientos>
        <id>628ca35d5d03cf4ffab21b9a</id>
        <direccion>VALLADOLID</direccion>
        <latitud>42.85279423012722</latitud>
        <longitud>-2.663328979107923</longitud>
        <numValoraciones>0</numValoraciones>
        <calificacionMedia>0.0</calificacionMedia>
        <url>http://localhost:8082/api/ciudades/644b0ad7-cb45-4ff0-9d1d-0d15d831a568/aparcamientos/628ca35d5d03cf4ffab21b9a</url>
    </aparcamientos>
    <aparcamientos>
        <id>628ca35d5d03cf4ffab21b9b</id>
        <direccion>MADRID</direccion>
        <latitud>42.85564256936697</latitud>
        <longitud>-2.658310852715305</longitud>
        <numValoraciones>0</numValoraciones>
        <calificacionMedia>0.0</calificacionMedia>
        <url>http://localhost:8082/api/ciudades/644b0ad7-cb45-4ff0-9d1d-0d15d831a568/aparcamientos/628ca35d5d03cf4ffab21b9b</url>
    </aparcamientos>
    <aparcamientos>
        <id>628ca35d5d03cf4ffab21b9c</id>
        <direccion>MADRID</direccion>
        <latitud>42.85586109096194</latitud>
        <longitud>-2.659306213029375</longitud>
        <numValoraciones>0</numValoraciones>
        <calificacionMedia>0.0</calificacionMedia>
        <url>http://localhost:8082/api/ciudades/644b0ad7-cb45-4ff0-9d1d-0d15d831a568/aparcamientos/628ca35d5d03cf4ffab21b9c</url>
    </aparcamientos>
    <aparcamientos>
        <id>628ca35d5d03cf4ffab21b9d</id>
        <direccion>MADRID</direccion>
        <latitud>42.85609527724474</latitud>
        <longitud>-2.659553158116341</longitud>
        <numValoraciones>0</numValoraciones>
        <calificacionMedia>0.0</calificacionMedia>
        <url>http://localhost:8082/api/ciudades/644b0ad7-cb45-4ff0-9d1d-0d15d831a568/aparcamientos/628ca35d5d03cf4ffab21b9d</url>
    </aparcamientos>
    <aparcamientos>
        <id>628ca35d5d03cf4ffab21b9e</id>
        <direccion>MADRID</direccion>
        <latitud>42.85636234766828</latitud>
        <longitud>-2.659416621727918</longitud>
        <numValoraciones>0</numValoraciones>
        <calificacionMedia>0.0</calificacionMedia>
        <url>http://localhost:8082/api/ciudades/644b0ad7-cb45-4ff0-9d1d-0d15d831a568/aparcamientos/628ca35d5d03cf4ffab21b9e</url>
    </aparcamientos>
    <aparcamientos>
        <id>628ca35d5d03cf4ffab21b9f</id>
        <direccion>MADRID</direccion>
        <latitud>42.85751916242593</latitud>
        <longitud>-2.660751782467641</longitud>
        <numValoraciones>0</numValoraciones>
        <calificacionMedia>0.0</calificacionMedia>
        <url>http://localhost:8082/api/ciudades/644b0ad7-cb45-4ff0-9d1d-0d15d831a568/aparcamientos/628ca35d5d03cf4ffab21b9f</url>
    </aparcamientos>
    <aparcamientos>
        <id>628ca35d5d03cf4ffab21ba0</id>
