<?xml version="1.0" encoding="UTF-8" standalone="yes"?>
<ciudad xmlns="http://www.um.es/ciudad" Nombre="Sta Cruz Tenerife" Latitud="28.4698" Longitud="-16.2549">
    <id>a051bc07-a08b-4cbe-8295-0e6bac14a686</id>
    <aparcamientos>
        <id>628ca27c5d03cf4ffab21963</id>
        <direccion>GTA ARQUITECTO MARRERO REGALADO 9</direccion>
        <latitud>28.47421890188569</latitud>
        <longitud>-16.2475747503091</longitud>
        <numValoraciones>0</numValoraciones>
        <calificacionMedia>0.0</calificacionMedia>
        <url>http://localhost:8082/api/ciudades/a051bc07-a08b-4cbe-8295-0e6bac14a686/aparcamientos/628ca27c5d03cf4ffab21963</url>
    </aparcamientos>
    <aparcamientos>
        <id>628ca27c5d03cf4ffab21964</id>
        <direccion>CALLE MENDEZ NUÑEZ 84</direccion>
        <latitud>28.47290023729084</latitud>
        <longitud>-16.25147511181226</longitud>
        <numValoraciones>0</numValoraciones>
        <calificacionMedia>0.0</calificacionMedia>
        <url>http://localhost:8082/api/ciudades/a051bc07-a08b-4cbe-8295-0e6bac14a686/aparcamientos/628ca27c5d03cf4ffab21964</url>
    </aparcamientos>
    <aparcamientos>
        <id>628ca27c5d03cf4ffab21965</id>
        <direccion>CALLE MENDEZ NUÑEZ 110</direccion>
        <latitud>28.47487921197406</latitud>
        <longitud>-16.24963820779448</longitud>
        <numValoraciones>0</numValoraciones>
        <calificacionMedia>0.0</calificacionMedia>
        <url>http://localhost:8082/api/ciudades/a051bc07-a08b-4cbe-8295-0e6bac14a686/aparcamientos/628ca27c5d03cf4ffab21965</url>
    </aparcamientos>
    <aparcamientos>
        <id>628ca27c5d03cf4ffab21966</id>
        <direccion>AVENIDA VEINTICINCO DE JULIO 43</direccion>
        <latitud>28.47384749858713</latitud>
        <longitud>-16.25551011147219</longitud>
        <numValoraciones>0</numValoraciones>
        <calificacionMedia>0.0</calificacionMedia>
        <url>http://localhost:8082/api/ciudades/a051bc07-a08b-4cbe-8295-0e6bac14a686/aparcamientos/628ca27c5d03cf4ffab21966</url>
    </aparcamientos>
    <aparcamientos>
        <id>628ca27c5d03cf4ffab21967</id>
        <direccion>CALLE SAN FERNANDO 7</direccion>
        <latitud>28.4745528649593</latitud>
        <longitud>-16.25017548555268</longitud>
        <numValoraciones>0</numValoraciones>
        <calificacionMedia>0.0</calificacionMedia>
        <url>http://localhost:8082/api/ciudades/a051bc07-a08b-4cbe-8295-0e6bac14a686/aparcamientos/628ca27c5d03cf4ffab21967</url>
    </aparcamientos>
    <aparcamientos>
        <id>628ca27c5d03cf4ffab21968</id>
        <direccion>CALLE SAN NICOLAS 2</direccion>
        <latitud>28.47126622571027</latitud>
        <longitud>-16.2509842027044</longitud>
        <numValoraciones>0</numValoraciones>
        <calificacionMedia>0.0</calificacionMedia>
        <url>http://localhost:8082/api/ciudades/a051bc07-a08b-4cbe-8295-0e6bac14a686/aparcamientos/628ca27c5d03cf4ffab21968</url>
    </aparcamientos>
    <aparcamientos>
        <id>628ca27c5d03cf4ffab21969</id>
        <direccion>CALLE EL SALUDO 29</direccion>
        <latitud>28.47495122023192</latitud>
        <longitud>-16.24914486448801</longitud>
        <numValoraciones>0</numValoraciones>
        <calificacionMedia>0.0</calificacionMedia>
        <url>http://localhost:8082/api/ciudades/a051bc07-a08b-4cbe-8295-0e6bac14a686/aparcamientos/628ca27c5d03cf4ffab21969</url>
    </aparcamientos>
    <aparcamientos>
        <id>628ca27c5d03cf4ffab2196a</id>
        <direccion>GTA ARQUITECTO MARRERO REGALADO 5</direccion>
        <latitud>28.47382726824833</latitud>
        <longitud>-16.2476844609276</longitud>
        <numValoraciones>0</numValoraciones>
        <calificacionMedia>0.0</calificacionMedia>
        <url>http://localhost:8082/api/ciudades/a051bc07-a08b-4cbe-8295-0e6bac14a686/aparcamientos/628ca27c5d03cf4ffab2196a</url>
    </aparcamientos>
    <aparcamientos>
        <id>628ca27c5d03cf4ffab2196b</id>
        <direccion>CALLE DOCTOR JOSE NAVEIRAS 46</direccion>
        <latitud>28.47520260031363</latitud>
        <longitud>-16.25461184673283</longitud>
        <numValoraciones>0</numValoraciones>
        <calificacionMedia>0.0</calificacionMedia>
        <url>http://localhost:8082/api/ciudades/a051bc07-a08b-4cbe-8295-0e6bac14a686/aparcamientos/628ca27c5d03cf4ffab2196b</url>
    </aparcamientos>
    <aparcamientos>
        <id>628ca27c5d03cf4ffab2196c</id>
        <direccion>CALLE PINTOR JOSE AGUIAR 4</direccion>
        <latitud>28.47536126832591</latitud>
        <longitud>-16.25254402544535</longitud>
        <numValoraciones>0</numValoraciones>
        <calificacionMedia>0.0</calificacionMedia>
        <url>http://localhost:8082/api/ciudades/a051bc07-a08b-4cbe-8295-0e6bac14a686/aparcamientos/628ca27c5d03cf4ffab2196c</url>
    </aparcamientos>
    <aparcamientos>
        <id>628ca27c5d03cf4ffab2196d</id>
        <direccion>CALLE PINTOR JOSE AGUIAR 4</direccion>
        <latitud>28.47531625517497</latitud>
        <longitud>-16.25254151584858</longitud>
        <numValoraciones>0</numValoraciones>
        <calificacionMedia>0.0</calificacionMedia>
        <url>http://localhost:8082/api/ciudades/a051bc07-a08b-4cbe-8295-0e6bac14a686/aparcamientos/628ca27c5d03cf4ffab2196d</url>
    </aparcamientos>
    <aparcamientos>
        <id>628ca27c5d03cf4ffab2196e</id>
        <direccion>RBLA DE SANTA CRUZ 120</direccion>
        <latitud>28.47432719240219</latitud>
        <longitud>-16.25206006076131</longitud>
        <numValoraciones>0</numValoraciones>
        <calificacionMedia>0.0</calificacionMedia>
        <url>http://localhost:8082/api/ciudades/a051bc07-a08b-4cbe-8295-0e6bac14a686/aparcamientos/628ca27c5d03cf4ffab2196e</url>
    </aparcamientos>
    <aparcamientos>
        <id>628ca27c5d03cf4ffab2196f</id>
        <direccion>CALLE NUMANCIA 23</direccion>
        <latitud>28.47102429056991</latitud>
        <longitud>-16.25446028646756</longitud>
        <numValoraciones>0</numValoraciones>
        <calificacionMedia>0.0</calificacionMedia>
        <url>http://localhost:8082/api/ciudades/a051bc07-a08b-4cbe-8295-0e6bac14a686/aparcamientos/628ca27c5d03cf4ffab2196f</url>
    </aparcamientos>
    <aparcamientos>
        <id>628ca27c5d03cf4ffab21970</id>
        <direccion>AVENIDA FRANCISCO LA ROCHE 17</direccion>
        <latitud>28.47117432091955</latitud>
        <longitud>-16.24739153683961</longitud>
        <numValoraciones>0</numValoraciones>
        <calificacionMedia>0.0</calificacionMedia>
        <url>http://localhost:8082/api/ciudades/a051bc07-a08b-4cbe-8295-0e6bac14a686/aparcamientos/628ca27c5d03cf4ffab21970</url>
    </aparcamientos>
    <aparcamientos>
        <id>628ca27c5d03cf4ffab21971</id>
        <direccion>CALLE LA ROSA 47</direccion>
        <latitud>28.47206428735437</latitud>
        <longitud>-16.24902308022782</longitud>
        <numValoraciones>0</numValoraciones>
        <calificacionMedia>0.0</calificacionMedia>
        <url>http://localhost:8082/api/ciudades/a051bc07-a08b-4cbe-8295-0e6bac14a686/aparcamientos/628ca27c5d03cf4ffab21971</url>
    </aparcamientos>
    <aparcamientos>
        <id>628ca27c5d03cf4ffab21972</id>
        <direccion>CALLE SANTIAGO 92</direccion>
        <latitud>28.47350579852741</latitud>
        <longitud>-16.24891727101939</longitud>
        <numValoraciones>0</numValoraciones>
        <calificacionMedia>0.0</calificacionMedia>
        <url>http://localhost:8082/api/ciudades/a051bc07-a08b-4cbe-8295-0e6bac14a686/aparcamientos/628ca27c5d03cf4ffab21972</url>
    </aparcamientos>
    <aparcamientos>
        <id>628ca27c5d03cf4ffab21973</id>
        <direccion>CALLE SAN MIGUEL 10</direccion>
        <latitud>28.47219042949368</latitud>
        <longitud>-16.25110481357171</longitud>
        <numValoraciones>0</numValoraciones>
        <calificacionMedia>0.0</calificacionMedia>
        <url>http://localhost:8082/api/ciudades/a051bc07-a08b-4cbe-8295-0e6bac14a686/aparcamientos/628ca27c5d03cf4ffab21973</url>
    </aparcamientos>
    <aparcamientos>
        <id>628ca27c5d03cf4ffab21974</id>
        <direccion>CALLE SAN MIGUEL 36</direccion>
        <latitud>28.47310946405904</latitud>
        <longitud>-16.2503886166906</longitud>
        <numValoraciones>0</numValoraciones>
        <calificacionMedia>0.0</calificacionMedia>
        <url>http://localhost:8082/api/ciudades/a051bc07-a08b-4cbe-8295-0e6bac14a686/aparcamientos/628ca27c5d03cf4ffab21974</url>
    </aparcamientos>
    <aparcamientos>
        <id>628ca27c5d03cf4ffab21975</id>
        <direccion>CALLE DECANO CONSULAR JESUS RAMOS GONZALEZ 2</direccion>
        <latitud>28.42085793302788</latitud>
        <longitud>-16.30258504745181</longitud>
        <numValoraciones>0</numValoraciones>
        <calificacionMedia>0.0</calificacionMedia>
        <url>http://localhost:8082/api/ciudades/a051bc07-a08b-4cbe-8295-0e6bac14a686/aparcamientos/628ca27c5d03cf4ffab21975</url>
    </aparcamientos>
    <aparcamientos>
        <id>628ca27c5d03cf4ffab21976</id>
        <direccion>CALLE DECANO CONSULAR JESUS RAMOS GONZALEZ 2</direccion>
        <latitud>28.4209452981348</latitud>
        <longitud>-16.30226657793151</longitud>
        <numValoraciones>0</numValoraciones>
        <calificacionMedia>0.0</calificacionMedia>
        <url>http://localhost:8082/api/ciudades/a051bc07-a08b-4cbe-8295-0e6bac14a686/aparcamientos/628ca27c5d03cf4ffab21976</url>
    </aparcamientos>
    <aparcamientos>
        <id>628ca27c5d03cf4ffab21977</id>
        <direccion>CALLE TENIENTE MARTIN BENCOMO 32</direccion>
        <latitud>28.47451277597294</latitud>
        <longitud>-16.25407100674149</longitud>
        <numValoraciones>0</numValoraciones>
        <calificacionMedia>0.0</calificacionMedia>
        <url>http://localhost:8082/api/ciudades/a051bc07-a08b-4cbe-8295-0e6bac14a686/aparcamientos/628ca27c5d03cf4ffab21977</url>
    </aparcamientos>
    <aparcamientos>
        <id>628ca27c5d03cf4ffab21978</id>
        <direccion>CALLE CRUZ DE LA GALLEGA S/N</direccion>
        <latitud>28.43167756515593</latitud>
        <longitud>-16.31689716309521</longitud>
        <numValoraciones>0</numValoraciones>
        <calificacionMedia>0.0</calificacionMedia>
        <url>http://localhost:8082/api/ciudades/a051bc07-a08b-4cbe-8295-0e6bac14a686/aparcamientos/628ca27c5d03cf4ffab21978</url>
    </aparcamientos>
    <aparcamientos>
        <id>628ca27c5d03cf4ffab21979</id>
        <direccion>CALLE CRUZ DE LA GALLEGA S/N</direccion>
        <latitud>28.43172363671284</latitud>
        <longitud>-16.31689982456741</longitud>
        <numValoraciones>0</numValoraciones>
        <calificacionMedia>0.0</calificacionMedia>
        <url>http://localhost:8082/api/ciudades/a051bc07-a08b-4cbe-8295-0e6bac14a686/aparcamientos/628ca27c5d03cf4ffab21979</url>
    </aparcamientos>
    <aparcamientos>
        <id>628ca27c5d03cf4ffab2197a</id>
        <direccion>SENDA REINA LUISA 32</direccion>
        <latitud>28.4254540479791</latitud>
        <longitud>-16.30732586823597</longitud>
        <numValoraciones>0</numValoraciones>
        <calificacionMedia>0.0</calificacionMedia>
        <url>http://localhost:8082/api/ciudades/a051bc07-a08b-4cbe-8295-0e6bac14a686/aparcamientos/628ca27c5d03cf4ffab2197a</url>
    </aparcamientos>
    <aparcamientos>
        <id>628ca27c5d03cf4ffab2197b</id>
        <direccion>CALLE AHOREN 39</direccion>
        <latitud>28.4280384715478</latitud>
        <longitud>-16.3076986629655</longitud>
        <numValoraciones>0</numValoraciones>
        <calificacionMedia>0.0</calificacionMedia>
        <url>http://localhost:8082/api/ciudades/a051bc07-a08b-4cbe-8295-0e6bac14a686/aparcamientos/628ca27c5d03cf4ffab2197b</url>
    </aparcamientos>
    <aparcamientos>
        <id>628ca27c5d03cf4ffab2197c</id>
        <direccion>CALLE AHOREN 41</direccion>
        <latitud>28.42793712656063</latitud>
        <longitud>-16.30768684081113</longitud>
        <numValoraciones>0</numValoraciones>
        <calificacionMedia>0.0</calificacionMedia>
        <url>http://localhost:8082/api/ciudades/a051bc07-a08b-4cbe-8295-0e6bac14a686/aparcamientos/628ca27c5d03cf4ffab2197c</url>
    </aparcamientos>
    <aparcamientos>
        <id>628ca27c5d03cf4ffab2197d</id>
        <direccion>CALLE FAISAN 36</direccion>
        <latitud>28.44273738227177</latitud>
        <longitud>-16.31704516022764</longitud>
        <numValoraciones>0</numValoraciones>
        <calificacionMedia>0.0</calificacionMedia>
        <url>http://localhost:8082/api/ciudades/a051bc07-a08b-4cbe-8295-0e6bac14a686/aparcamientos/628ca27c5d03cf4ffab2197d</url>
    </aparcamientos>
    <aparcamientos>
        <id>628ca27c5d03cf4ffab2197e</id>
        <direccion>CALLE HALCON</direccion>
        <latitud>28.44254426955381</latitud>
        <longitud>-16.31224873792361</longitud>
        <numValoraciones>0</numValoraciones>
        <calificacionMedia>0.0</calificacionMedia>
        <url>http://localhost:8082/api/ciudades/a051bc07-a08b-4cbe-8295-0e6bac14a686/aparcamientos/628ca27c5d03cf4ffab2197e</url>
    </aparcamientos>
    <aparcamientos>
        <id>628ca27c5d03cf4ffab2197f</id>
        <direccion>AVENIDA LOS MAJUELOS 32</direccion>
        <latitud>28.44174667992948</latitud>
        <longitud>-16.31450978280117</longitud>
        <numValoraciones>0</numValoraciones>
        <calificacionMedia>0.0</calificacionMedia>
        <url>http://localhost:8082/api/ciudades/a051bc07-a08b-4cbe-8295-0e6bac14a686/aparcamientos/628ca27c5d03cf4ffab2197f</url>
    </aparcamientos>
    <aparcamientos>
        <id>628ca27c5d03cf4ffab21980</id>
        <direccion>AVENIDA LOS MAJUELOS 32</direccion>
        <latitud>28.44180670121302</latitud>
        <longitud>-16.31442479468878</longitud>
        <numValoraciones>0</numValoraciones>
        <calificacionMedia>0.0</calificacionMedia>
        <url>http://localhost:8082/api/ciudades/a051bc07-a08b-4cbe-8295-0e6bac14a686/aparcamientos/628ca27c5d03cf4ffab21980</url>
    </aparcamientos>
    <aparcamientos>
        <id>628ca27c5d03cf4ffab21981</id>
        <direccion>CALLE DONIS 6</direccion>
        <latitud>28.43957916982293</latitud>
        <longitud>-16.31814703597229</longitud>
        <numValoraciones>0</numValoraciones>
        <calificacionMedia>0.0</calificacionMedia>
        <url>http://localhost:8082/api/ciudades/a051bc07-a08b-4cbe-8295-0e6bac14a686/aparcamientos/628ca27c5d03cf4ffab21981</url>
    </aparcamientos>
    <aparcamientos>
        <id>628ca27c5d03cf4ffab21982</id>
        <direccion>CALLE DONIS 2</direccion>
        <latitud>28.43943717420077</latitud>
        <longitud>-16.31774339386356</longitud>
        <numValoraciones>0</numValoraciones>
        <calificacionMedia>0.0</calificacionMedia>
        <url>http://localhost:8082/api/ciudades/a051bc07-a08b-4cbe-8295-0e6bac14a686/aparcamientos/628ca27c5d03cf4ffab21982</url>
    </aparcamientos>
    <aparcamientos>
        <id>628ca27c5d03cf4ffab21983</id>
        <direccion>CALLE CARPINTERO 13</direccion>
        <latitud>28.43938057097736</latitud>
        <longitud>-16.31526405786073</longitud>
        <numValoraciones>0</numValoraciones>
        <calificacionMedia>0.0</calificacionMedia>
        <url>http://localhost:8082/api/ciudades/a051bc07-a08b-4cbe-8295-0e6bac14a686/aparcamientos/628ca27c5d03cf4ffab21983</url>
    </aparcamientos>
    <aparcamientos>
        <id>628ca27c5d03cf4ffab21984</id>
        <direccion>CALLE PATO 2</direccion>
        <latitud>28.43859996128396</latitud>
        <longitud>-16.31141061049857</longitud>
        <numValoraciones>0</numValoraciones>
        <calificacionMedia>0.0</calificacionMedia>
        <url>http://localhost:8082/api/ciudades/a051bc07-a08b-4cbe-8295-0e6bac14a686/aparcamientos/628ca27c5d03cf4ffab21984</url>
    </aparcamientos>
    <aparcamientos>
        <id>628ca27c5d03cf4ffab21985</id>
        <direccion>CALLE RUISEÑOR 16</direccion>
        <latitud>28.43479567402038</latitud>
        <longitud>-16.30896746773374</longitud>
        <numValoraciones>0</numValoraciones>
        <calificacionMedia>0.0</calificacionMedia>
        <url>http://localhost:8082/api/ciudades/a051bc07-a08b-4cbe-8295-0e6bac14a686/aparcamientos/628ca27c5d03cf4ffab21985</url>
    </aparcamientos>
    <aparcamientos>
        <id>628ca27c5d03cf4ffab21986</id>
        <direccion>CALLE RUISEÑOR 16</direccion>
        <latitud>28.43480718433591</latitud>
        <longitud>-16.30891930490503</longitud>
        <numValoraciones>0</numValoraciones>
        <calificacionMedia>0.0</calificacionMedia>
        <url>http://localhost:8082/api/ciudades/a051bc07-a08b-4cbe-8295-0e6bac14a686/aparcamientos/628ca27c5d03cf4ffab21986</url>
    </aparcamientos>
    <aparcamientos>
        <id>628ca27c5d03cf4ffab21987</id>
        <direccion>CALLE ANADE 8</direccion>
        <latitud>28.44017621996554</latitud>
        <longitud>-16.31442831912356</longitud>
        <numValoraciones>0</numValoraciones>
        <calificacionMedia>0.0</calificacionMedia>
        <url>http://localhost:8082/api/ciudades/a051bc07-a08b-4cbe-8295-0e6bac14a686/aparcamientos/628ca27c5d03cf4ffab21987</url>
    </aparcamientos>
    <aparcamientos>
        <id>628ca27c5d03cf4ffab21988</id>
        <direccion>AVDA PRINCIPAL AÑAZA 2</direccion>
        <latitud>28.42242312352575</latitud>
        <longitud>-16.30297160875685</longitud>
        <numValoraciones>0</numValoraciones>
        <calificacionMedia>0.0</calificacionMedia>
        <url>http://localhost:8082/api/ciudades/a051bc07-a08b-4cbe-8295-0e6bac14a686/aparcamientos/628ca27c5d03cf4ffab21988</url>
    </aparcamientos>
    <aparcamientos>
        <id>628ca27c5d03cf4ffab21989</id>
        <direccion>CALLE COROMINAS 9</direccion>
        <latitud>28.4362545329445</latitud>
        <longitud>-16.30843631913104</longitud>
        <numValoraciones>0</numValoraciones>
        <calificacionMedia>0.0</calificacionMedia>
        <url>http://localhost:8082/api/ciudades/a051bc07-a08b-4cbe-8295-0e6bac14a686/aparcamientos/628ca27c5d03cf4ffab21989</url>
    </aparcamientos>
    <aparcamientos>
        <id>628ca27c5d03cf4ffab2198a</id>
        <direccion>CALLE VOLCAN MAMBROQUE 1</direccion>
        <latitud>28.44783580688146</latitud>
        <longitud>-16.31115808016194</longitud>
        <numValoraciones>0</numValoraciones>
        <calificacionMedia>0.0</calificacionMedia>
        <url>http://localhost:8082/api/ciudades/a051bc07-a08b-4cbe-8295-0e6bac14a686/aparcamientos/628ca27c5d03cf4ffab2198a</url>
    </aparcamientos>
    <aparcamientos>
        <id>628ca27c5d03cf4ffab2198b</id>
        <direccion>CALLE DECANO CONSULAR JESUS RAMOS GONZALEZ 1</direccion>
        <latitud>28.42166739402057</latitud>
        <longitud>-16.29966373316491</longitud>
        <numValoraciones>0</numValoraciones>
        <calificacionMedia>0.0</calificacionMedia>
        <url>http://localhost:8082/api/ciudades/a051bc07-a08b-4cbe-8295-0e6bac14a686/aparcamientos/628ca27c5d03cf4ffab2198b</url>
    </aparcamientos>
    <aparcamientos>
        <id>628ca27c5d03cf4ffab2198c</id>
        <direccion>AVENIDA PRINCIPAL AÑAZA 3</direccion>
        <latitud>28.42319772612543</latitud>
        <longitud>-16.30275325519991</longitud>
        <numValoraciones>0</numValoraciones>
        <calificacionMedia>0.0</calificacionMedia>
        <url>http://localhost:8082/api/ciudades/a051bc07-a08b-4cbe-8295-0e6bac14a686/aparcamientos/628ca27c5d03cf4ffab2198c</url>
    </aparcamientos>
    <aparcamientos>
        <id>628ca27c5d03cf4ffab2198d</id>
        <direccion>CALLE NANINO DIAZ CUTILLAS 1</direccion>
        <latitud>28.42386411730082</latitud>
        <longitud>-16.29581739768113</longitud>
        <numValoraciones>0</numValoraciones>
        <calificacionMedia>0.0</calificacionMedia>
        <url>http://localhost:8082/api/ciudades/a051bc07-a08b-4cbe-8295-0e6bac14a686/aparcamientos/628ca27c5d03cf4ffab2198d</url>
    </aparcamientos>
    <aparcamientos>
        <id>628ca27c5d03cf4ffab2198e</id>
        <direccion>CALLE CHINAMADA 7</direccion>
        <latitud>28.42801013593677</latitud>
        <longitud>-16.30653346683768</longitud>
        <numValoraciones>0</numValoraciones>
        <calificacionMedia>0.0</calificacionMedia>
        <url>http://localhost:8082/api/ciudades/a051bc07-a08b-4cbe-8295-0e6bac14a686/aparcamientos/628ca27c5d03cf4ffab2198e</url>
    </aparcamientos>
    <aparcamientos>
        <id>628ca27c5d03cf4ffab2198f</id>
        <direccion>CALLE BILMA 31</direccion>
        <latitud>28.42751861523025</latitud>
        <longitud>-16.30610428554444</longitud>
        <numValoraciones>0</numValoraciones>
        <calificacionMedia>0.0</calificacionMedia>
        <url>http://localhost:8082/api/ciudades/a051bc07-a08b-4cbe-8295-0e6bac14a686/aparcamientos/628ca27c5d03cf4ffab2198f</url>
    </aparcamientos>
    <aparcamientos>
        <id>628ca27c5d03cf4ffab21990</id>
        <direccion>CALLE CHOPO 18</direccion>
        <latitud>28.44035646226597</latitud>
        <longitud>-16.30673804840144</longitud>
        <numValoraciones>0</numValoraciones>
        <calificacionMedia>0.0</calificacionMedia>
        <url>http://localhost:8082/api/ciudades/a051bc07-a08b-4cbe-8295-0e6bac14a686/aparcamientos/628ca27c5d03cf4ffab21990</url>
    </aparcamientos>
    <aparcamientos>
        <id>628ca27c5d03cf4ffab21991</id>
        <direccion>CALLE CAÑAMO 19</direccion>
        <latitud>28.44202406258644</latitud>
        <longitud>-16.30677940731031</longitud>
        <numValoraciones>0</numValoraciones>
        <calificacionMedia>0.0</calificacionMedia>
        <url>http://localhost:8082/api/ciudades/a051bc07-a08b-4cbe-8295-0e6bac14a686/aparcamientos/628ca27c5d03cf4ffab21991</url>
    </aparcamientos>
    <aparcamientos>
        <id>628ca27c5d03cf4ffab21992</id>
        <direccion>CALLE CHAFIRA 65</direccion>
        <latitud>28.44416146395935</latitud>
        <longitud>-16.28873929417719</longitud>
        <numValoraciones>0</numValoraciones>
        <calificacionMedia>0.0</calificacionMedia>
        <url>http://localhost:8082/api/ciudades/a051bc07-a08b-4cbe-8295-0e6bac14a686/aparcamientos/628ca27c5d03cf4ffab21992</url>
    </aparcamientos>
    <aparcamientos>
        <id>628ca27c5d03cf4ffab21993</id>
        <direccion>CALLE CHAFIRA 36</direccion>
        <latitud>28.44456847658185</latitud>
        <longitud>-16.28892741605624</longitud>
        <numValoraciones>0</numValoraciones>
        <calificacionMedia>0.0</calificacionMedia>
        <url>http://localhost:8082/api/ciudades/a051bc07-a08b-4cbe-8295-0e6bac14a686/aparcamientos/628ca27c5d03cf4ffab21993</url>
    </aparcamientos>
    <aparcamientos>
        <id>628ca27c5d03cf4ffab21994</id>
        <direccion>CALLE CHAFIRA 36</direccion>
        <latitud>28.44456933953729</latitud>
        <longitud>-16.28892797487229</longitud>
        <numValoraciones>0</numValoraciones>
        <calificacionMedia>0.0</calificacionMedia>
        <url>http://localhost:8082/api/ciudades/a051bc07-a08b-4cbe-8295-0e6bac14a686/aparcamientos/628ca27c5d03cf4ffab21994</url>
    </aparcamientos>
    <aparcamientos>
        <id>628ca27c5d03cf4ffab21995</id>
        <direccion>CALLE EL DRAGUILLO 39</direccion>
        <latitud>28.43629238863723</latitud>
        <longitud>-16.30402768100787</longitud>
        <numValoraciones>0</numValoraciones>
        <calificacionMedia>0.0</calificacionMedia>
        <url>http://localhost:8082/api/ciudades/a051bc07-a08b-4cbe-8295-0e6bac14a686/aparcamientos/628ca27c5d03cf4ffab21995</url>
    </aparcamientos>
    <aparcamientos>
        <id>628ca27c5d03cf4ffab21996</id>
        <direccion>CALLE CURVA EL ARCO IRIS 14</direccion>
        <latitud>28.4468779322848</latitud>
        <longitud>-16.28906809518669</longitud>
        <numValoraciones>0</numValoraciones>
        <calificacionMedia>0.0</calificacionMedia>
        <url>http://localhost:8082/api/ciudades/a051bc07-a08b-4cbe-8295-0e6bac14a686/aparcamientos/628ca27c5d03cf4ffab21996</url>
    </aparcamientos>
    <aparcamientos>
        <id>628ca27c5d03cf4ffab21997</id>
        <direccion>CALLE JUAN RODRIGUEZ SANTOS 24</direccion>
        <latitud>28.44944290687671</latitud>
        <longitud>-16.28840025627509</longitud>
        <numValoraciones>0</numValoraciones>
        <calificacionMedia>0.0</calificacionMedia>
        <url>http://localhost:8082/api/ciudades/a051bc07-a08b-4cbe-8295-0e6bac14a686/aparcamientos/628ca27c5d03cf4ffab21997</url>
    </aparcamientos>
    <aparcamientos>
        <id>628ca27c5d03cf4ffab21998</id>
        <direccion>CALLE AMERICA 40</direccion>
        <latitud>28.45383816884981</latitud>
        <longitud>-16.28927019531499</longitud>
        <numValoraciones>0</numValoraciones>
        <calificacionMedia>0.0</calificacionMedia>
        <url>http://localhost:8082/api/ciudades/a051bc07-a08b-4cbe-8295-0e6bac14a686/aparcamientos/628ca27c5d03cf4ffab21998</url>
    </aparcamientos>
    <aparcamientos>
        <id>628ca27c5d03cf4ffab21999</id>
        <direccion>AVENIDA TRES DE MAYO 9</direccion>
        <latitud>28.45916303446998</latitud>
        <longitud>-16.25578019082919</longitud>
        <numValoraciones>0</numValoraciones>
        <calificacionMedia>0.0</calificacionMedia>
        <url>http://localhost:8082/api/ciudades/a051bc07-a08b-4cbe-8295-0e6bac14a686/aparcamientos/628ca27c5d03cf4ffab21999</url>
    </aparcamientos>
    <aparcamientos>
        <id>628ca27c5d03cf4ffab2199a</id>
        <direccion>CTRA DEL ROSARIO 63</direccion>
        <latitud>28.45344487185981</latitud>
        <longitud>-16.27816845456886</longitud>
        <numValoraciones>0</numValoraciones>
        <calificacionMedia>0.0</calificacionMedia>
        <url>http://localhost:8082/api/ciudades/a051bc07-a08b-4cbe-8295-0e6bac14a686/aparcamientos/628ca27c5d03cf4ffab2199a</url>
    </aparcamientos>
    <aparcamientos>
        <id>628ca27c5d03cf4ffab2199b</id>
        <direccion>SENDA ICOR 5</direccion>
        <latitud>28.45673426153546</latitud>
        <longitud>-16.28157567593749</longitud>
        <numValoraciones>0</numValoraciones>
        <calificacionMedia>0.0</calificacionMedia>
        <url>http://localhost:8082/api/ciudades/a051bc07-a08b-4cbe-8295-0e6bac14a686/aparcamientos/628ca27c5d03cf4ffab2199b</url>
    </aparcamientos>
    <aparcamientos>
        <id>628ca27c5d03cf4ffab2199c</id>
        <direccion>CALLE HURTADO DE MENDOZA 15</direccion>
        <latitud>28.45220460396854</latitud>
        <longitud>-16.28705692284489</longitud>
        <numValoraciones>0</numValoraciones>
        <calificacionMedia>0.0</calificacionMedia>
        <url>http://localhost:8082/api/ciudades/a051bc07-a08b-4cbe-8295-0e6bac14a686/aparcamientos/628ca27c5d03cf4ffab2199c</url>
    </aparcamientos>
    <aparcamientos>
        <id>628ca27c5d03cf4ffab2199d</id>
        <direccion>CALLE CORINTO 3</direccion>
        <latitud>28.4502490265694</latitud>
        <longitud>-16.28957022319987</longitud>
        <numValoraciones>0</numValoraciones>
        <calificacionMedia>0.0</calificacionMedia>
        <url>http://localhost:8082/api/ciudades/a051bc07-a08b-4cbe-8295-0e6bac14a686/aparcamientos/628ca27c5d03cf4ffab2199d</url>
    </aparcamientos>
    <aparcamientos>
        <id>628ca27c5d03cf4ffab2199e</id>
        <direccion>CALLE MONTAÑA CLARA 2</direccion>
        <latitud>28.44664765322331</latitud>
        <longitud>-16.29202945875008</longitud>
        <numValoraciones>0</numValoraciones>
        <calificacionMedia>0.0</calificacionMedia>
        <url>http://localhost:8082/api/ciudades/a051bc07-a08b-4cbe-8295-0e6bac14a686/aparcamientos/628ca27c5d03cf4ffab2199e</url>
    </aparcamientos>
    <aparcamientos>
        <id>628ca27c5d03cf4ffab2199f</id>
        <direccion>CALLE SAN IGNACIO 3B</direccion>
        <latitud>28.44643951959004</latitud>
        <longitud>-16.29148095841337</longitud>
        <numValoraciones>0</numValoraciones>
        <calificacionMedia>0.0</calificacionMedia>
        <url>http://localhost:8082/api/ciudades/a051bc07-a08b-4cbe-8295-0e6bac14a686/aparcamientos/628ca27c5d03cf4ffab2199f</url>
    </aparcamientos>
    <aparcamientos>
        <id>628ca27c5d03cf4ffab219a0</id>
        <direccion>CALLE CURVA EL ARCO IRIS 6</direccion>
        <latitud>28.44679112643836</latitud>
        <longitud>-16.2884911130528</longitud>
        <numValoraciones>0</numValoraciones>
        <calificacionMedia>0.0</calificacionMedia>
        <url>http://localhost:8082/api/ciudades/a051bc07-a08b-4cbe-8295-0e6bac14a686/aparcamientos/628ca27c5d03cf4ffab219a0</url>
    </aparcamientos>
    <aparcamientos>
        <id>628ca27c5d03cf4ffab219a1</id>
        <direccion>CALLE JUAN DE GARAY 7</direccion>
        <latitud>28.45166444801438</latitud>
        <longitud>-16.28003414757566</longitud>
        <numValoraciones>0</numValoraciones>
        <calificacionMedia>0.0</calificacionMedia>
        <url>http://localhost:8082/api/ciudades/a051bc07-a08b-4cbe-8295-0e6bac14a686/aparcamientos/628ca27c5d03cf4ffab219a1</url>
    </aparcamientos>
    <aparcamientos>
        <id>628ca27c5d03cf4ffab219a2</id>
        <direccion>CALLE TABURIENTE 45</direccion>
        <latitud>28.44938464395675</latitud>
        <longitud>-16.28329906491622</longitud>
        <numValoraciones>0</numValoraciones>
        <calificacionMedia>0.0</calificacionMedia>
        <url>http://localhost:8082/api/ciudades/a051bc07-a08b-4cbe-8295-0e6bac14a686/aparcamientos/628ca27c5d03cf4ffab219a2</url>
    </aparcamientos>
    <aparcamientos>
        <id>628ca27c5d03cf4ffab219a3</id>
        <direccion>CALLE ELIAS BACALLADO 10</direccion>
        <latitud>28.45779276686281</latitud>
        <longitud>-16.28419897288912</longitud>
        <numValoraciones>0</numValoraciones>
        <calificacionMedia>0.0</calificacionMedia>
        <url>http://localhost:8082/api/ciudades/a051bc07-a08b-4cbe-8295-0e6bac14a686/aparcamientos/628ca27c5d03cf4ffab219a3</url>
    </aparcamientos>
    <aparcamientos>
        <id>628ca27c5d03cf4ffab219a4</id>
        <direccion>CALLE ELIAS BACALLADO 10</direccion>
        <latitud>28.45774534206125</latitud>
        <longitud>-16.28419626315987</longitud>
        <numValoraciones>0</numValoraciones>
        <calificacionMedia>0.0</calificacionMedia>
        <url>http://localhost:8082/api/ciudades/a051bc07-a08b-4cbe-8295-0e6bac14a686/aparcamientos/628ca27c5d03cf4ffab219a4</url>
    </aparcamientos>
    <aparcamientos>
        <id>628ca27c5d03cf4ffab219a5</id>
        <direccion>CALLE OLIVINA</direccion>
        <latitud>28.45344707063899</latitud>
        <longitud>-16.28807340233753</longitud>
        <numValoraciones>0</numValoraciones>
        <calificacionMedia>0.0</calificacionMedia>
        <url>http://localhost:8082/api/ciudades/a051bc07-a08b-4cbe-8295-0e6bac14a686/aparcamientos/628ca27c5d03cf4ffab219a5</url>
    </aparcamientos>
    <aparcamientos>
        <id>628ca27c5d03cf4ffab219a6</id>
        <direccion>CALLE TAMADAYA 3</direccion>
        <latitud>28.45755663910318</latitud>
        <longitud>-16.27950534815234</longitud>
        <numValoraciones>0</numValoraciones>
        <calificacionMedia>0.0</calificacionMedia>
        <url>http://localhost:8082/api/ciudades/a051bc07-a08b-4cbe-8295-0e6bac14a686/aparcamientos/628ca27c5d03cf4ffab219a6</url>
    </aparcamientos>
    <aparcamientos>
        <id>628ca27c5d03cf4ffab219a7</id>
        <direccion>CALLE GANIVET 3</direccion>
        <latitud>28.46106687590106</latitud>
        <longitud>-16.26754577957724</longitud>
        <numValoraciones>0</numValoraciones>
        <calificacionMedia>0.0</calificacionMedia>
        <url>http://localhost:8082/api/ciudades/a051bc07-a08b-4cbe-8295-0e6bac14a686/aparcamientos/628ca27c5d03cf4ffab219a7</url>
    </aparcamientos>
    <aparcamientos>
        <id>628ca27c5d03cf4ffab219a8</id>
        <direccion>CALLE FRAY LUIS DE LEON 6</direccion>
        <latitud>28.45327864302429</latitud>
        <longitud>-16.28892641789129</longitud>
        <numValoraciones>0</numValoraciones>
        <calificacionMedia>0.0</calificacionMedia>
        <url>http://localhost:8082/api/ciudades/a051bc07-a08b-4cbe-8295-0e6bac14a686/aparcamientos/628ca27c5d03cf4ffab219a8</url>
    </aparcamientos>
    <aparcamientos>
        <id>628ca27c5d03cf4ffab219a9</id>
        <direccion>CALLE JOSE MARIA PEREDA 12</direccion>
        <latitud>28.4539487385649</latitud>
        <longitud>-16.29039532584488</longitud>
        <numValoraciones>0</numValoraciones>
        <calificacionMedia>0.0</calificacionMedia>
        <url>http://localhost:8082/api/ciudades/a051bc07-a08b-4cbe-8295-0e6bac14a686/aparcamientos/628ca27c5d03cf4ffab219a9</url>
    </aparcamientos>
    <aparcamientos>
        <id>628ca27c5d03cf4ffab219aa</id>
        <direccion>CALLE SANTA MARIA SOLEDAD 49</direccion>
        <latitud>28.4574961720829</latitud>
        <longitud>-16.28802322791018</longitud>
        <numValoraciones>0</numValoraciones>
        <calificacionMedia>0.0</calificacionMedia>
        <url>http://localhost:8082/api/ciudades/a051bc07-a08b-4cbe-8295-0e6bac14a686/aparcamientos/628ca27c5d03cf4ffab219aa</url>
    </aparcamientos>
    <aparcamientos>
        <id>628ca27c5d03cf4ffab219ab</id>
        <direccion>CALLE OLIVINA 1</direccion>
        <latitud>28.45328832680354</latitud>
        <longitud>-16.28775122913697</longitud>
        <numValoraciones>0</numValoraciones>
        <calificacionMedia>0.0</calificacionMedia>
        <url>http://localhost:8082/api/ciudades/a051bc07-a08b-4cbe-8295-0e6bac14a686/aparcamientos/628ca27c5d03cf4ffab219ab</url>
    </aparcamientos>
    <aparcamientos>
        <id>628ca27c5d03cf4ffab219ac</id>
        <direccion>CALLE ESTANISLAO BROTONS POVEDA 7</direccion>
        <latitud>28.4574199628552</latitud>
        <longitud>-16.28172916391347</longitud>
        <numValoraciones>0</numValoraciones>
        <calificacionMedia>0.0</calificacionMedia>
        <url>http://localhost:8082/api/ciudades/a051bc07-a08b-4cbe-8295-0e6bac14a686/aparcamientos/628ca27c5d03cf4ffab219ac</url>
    </aparcamientos>
    <aparcamientos>
        <id>628ca27c5d03cf4ffab219ad</id>
        <direccion>AVENIDA TRES DE MAYO 79</direccion>
        <latitud>28.45821194321861</latitud>
        <longitud>-16.25981144317382</longitud>
        <numValoraciones>0</numValoraciones>
        <calificacionMedia>0.0</calificacionMedia>
        <url>http://localhost:8082/api/ciudades/a051bc07-a08b-4cbe-8295-0e6bac14a686/aparcamientos/628ca27c5d03cf4ffab219ad</url>
    </aparcamientos>
    <aparcamientos>
        <id>628ca27c5d03cf4ffab219ae</id>
        <direccion>CALLE ESTANISLAO BROTONS POVEDA 4</direccion>
        <latitud>28.45842975281913</latitud>
        <longitud>-16.28187667641873</longitud>
        <numValoraciones>0</numValoraciones>
        <calificacionMedia>0.0</calificacionMedia>
        <url>http://localhost:8082/api/ciudades/a051bc07-a08b-4cbe-8295-0e6bac14a686/aparcamientos/628ca27c5d03cf4ffab219ae</url>
    </aparcamientos>
    <aparcamientos>
        <id>628ca27c5d03cf4ffab219af</id>
        <direccion>CALLE GUAYADEQUE 2</direccion>
        <latitud>28.45663780624497</latitud>
        <longitud>-16.28025848894836</longitud>
        <numValoraciones>0</numValoraciones>
        <calificacionMedia>0.0</calificacionMedia>
        <url>http://localhost:8082/api/ciudades/a051bc07-a08b-4cbe-8295-0e6bac14a686/aparcamientos/628ca27c5d03cf4ffab219af</url>
    </aparcamientos>
    <aparcamientos>
        <id>628ca27c5d03cf4ffab219b0</id>
        <direccion>CALLE AÑAVINGO 24</direccion>
        <latitud>28.45637613993985</latitud>
        <longitud>-16.27962482661375</longitud>
        <numValoraciones>0</numValoraciones>
        <calificacionMedia>0.0</calificacionMedia>
        <url>http://localhost:8082/api/ciudades/a051bc07-a08b-4cbe-8295-0e6bac14a686/aparcamientos/628ca27c5d03cf4ffab219b0</url>
    </aparcamientos>
    <aparcamientos>
        <id>628ca27c5d03cf4ffab219b1</id>
        <direccion>CALLE RAMIRO DE MAEZTU 14</direccion>
        <latitud>28.45712963192957</latitud>
        <longitud>-16.26641668408383</longitud>
        <numValoraciones>0</numValoraciones>
        <calificacionMedia>0.0</calificacionMedia>
        <url>http://localhost:8082/api/ciudades/a051bc07-a08b-4cbe-8295-0e6bac14a686/aparcamientos/628ca27c5d03cf4ffab219b1</url>
    </aparcamientos>
    <aparcamientos>
        <id>628ca27c5d03cf4ffab219b2</id>
        <direccion>CALLE GANIVET 5</direccion>
        <latitud>28.46031937454287</latitud>
        <longitud>-16.26832502289583</longitud>
        <numValoraciones>0</numValoraciones>
        <calificacionMedia>0.0</calificacionMedia>
        <url>http://localhost:8082/api/ciudades/a051bc07-a08b-4cbe-8295-0e6bac14a686/aparcamientos/628ca27c5d03cf4ffab219b2</url>
    </aparcamientos>
    <aparcamientos>
        <id>628ca27c5d03cf4ffab219b3</id>
        <direccion>CALLE ALCALDE MANDILLO TEJERA 29</direccion>
        <latitud>28.46136534784568</latitud>
        <longitud>-16.27254355235328</longitud>
        <numValoraciones>0</numValoraciones>
        <calificacionMedia>0.0</calificacionMedia>
        <url>http://localhost:8082/api/ciudades/a051bc07-a08b-4cbe-8295-0e6bac14a686/aparcamientos/628ca27c5d03cf4ffab219b3</url>
    </aparcamientos>
    <aparcamientos>
        <id>628ca27c5d03cf4ffab219b4</id>
        <direccion>CALLE HERNAN CORTÉS</direccion>
        <latitud>28.45320865608069</latitud>
        <longitud>-16.2844145939526</longitud>
        <numValoraciones>0</numValoraciones>
        <calificacionMedia>0.0</calificacionMedia>
        <url>http://localhost:8082/api/ciudades/a051bc07-a08b-4cbe-8295-0e6bac14a686/aparcamientos/628ca27c5d03cf4ffab219b4</url>
    </aparcamientos>
    <aparcamientos>
        <id>628ca27c5d03cf4ffab219b5</id>
        <direccion>CALLE BARCELONA 2</direccion>
        <latitud>28.45259890547862</latitud>
        <longitud>-16.27483424435315</longitud>
        <numValoraciones>0</numValoraciones>
        <calificacionMedia>0.0</calificacionMedia>
        <url>http://localhost:8082/api/ciudades/a051bc07-a08b-4cbe-8295-0e6bac14a686/aparcamientos/628ca27c5d03cf4ffab219b5</url>
    </aparcamientos>
    <aparcamientos>
        <id>628ca27c5d03cf4ffab219b6</id>
        <direccion>CALLE DEL MENCEY 5</direccion>
        <latitud>28.458875324753</latitud>
        <longitud>-16.27292805245268</longitud>
        <numValoraciones>0</numValoraciones>
        <calificacionMedia>0.0</calificacionMedia>
        <url>http://localhost:8082/api/ciudades/a051bc07-a08b-4cbe-8295-0e6bac14a686/aparcamientos/628ca27c5d03cf4ffab219b6</url>
    </aparcamientos>
    <aparcamientos>
        <id>628ca27c5d03cf4ffab219b7</id>
        <direccion>CALLE ALCALDE MANDILLO TEJERA 9</direccion>
        <latitud>28.46054620041742</latitud>
        <longitud>-16.27079467301345</longitud>
        <numValoraciones>0</numValoraciones>
        <calificacionMedia>0.0</calificacionMedia>
        <url>http://localhost:8082/api/ciudades/a051bc07-a08b-4cbe-8295-0e6bac14a686/aparcamientos/628ca27c5d03cf4ffab219b7</url>
    </aparcamientos>
    <aparcamientos>
        <id>628ca27c5d03cf4ffab219b8</id>
        <direccion>CALLE ALCALDE MANDILLO TEJERA 21</direccion>
        <latitud>28.46102159946503</latitud>
        <longitud>-16.27182017388975</longitud>
        <numValoraciones>0</numValoraciones>
        <calificacionMedia>0.0</calificacionMedia>
        <url>http://localhost:8082/api/ciudades/a051bc07-a08b-4cbe-8295-0e6bac14a686/aparcamientos/628ca27c5d03cf4ffab219b8</url>
    </aparcamientos>
    <aparcamientos>
        <id>628ca27c5d03cf4ffab219b9</id>
        <direccion>CALLE BARTOLOME CIFRA 1</direccion>
        <latitud>28.46965836045588</latitud>
        <longitud>-16.2780409253021</longitud>
        <numValoraciones>0</numValoraciones>
        <calificacionMedia>0.0</calificacionMedia>
        <url>http://localhost:8082/api/ciudades/a051bc07-a08b-4cbe-8295-0e6bac14a686/aparcamientos/628ca27c5d03cf4ffab219b9</url>
    </aparcamientos>
    <aparcamientos>
        <id>628ca27c5d03cf4ffab219ba</id>
        <direccion>CALLE DOCTOR JOSE MANUEL MIRALLES 5</direccion>
        <latitud>28.45450817867932</latitud>
        <longitud>-16.27436789152464</longitud>
        <numValoraciones>0</numValoraciones>
        <calificacionMedia>0.0</calificacionMedia>
        <url>http://localhost:8082/api/ciudades/a051bc07-a08b-4cbe-8295-0e6bac14a686/aparcamientos/628ca27c5d03cf4ffab219ba</url>
    </aparcamientos>
    <aparcamientos>
        <id>628ca27c5d03cf4ffab219bb</id>
        <direccion>AVENIDA DE VENEZUELA 2C</direccion>
        <latitud>28.46582094397391</latitud>
        <longitud>-16.2699262811096</longitud>
        <numValoraciones>0</numValoraciones>
        <calificacionMedia>0.0</calificacionMedia>
        <url>http://localhost:8082/api/ciudades/a051bc07-a08b-4cbe-8295-0e6bac14a686/aparcamientos/628ca27c5d03cf4ffab219bb</url>
    </aparcamientos>
    <aparcamientos>
        <id>628ca27c5d03cf4ffab219bc</id>
        <direccion>CALLE RAFAEL AROCHA GUILLAMA 30</direccion>
        <latitud>28.46598766013027</latitud>
        <longitud>-16.2739027959851</longitud>
        <numValoraciones>0</numValoraciones>
        <calificacionMedia>0.0</calificacionMedia>
        <url>http://localhost:8082/api/ciudades/a051bc07-a08b-4cbe-8295-0e6bac14a686/aparcamientos/628ca27c5d03cf4ffab219bc</url>
    </aparcamientos>
    <aparcamientos>
        <id>628ca27c5d03cf4ffab219bd</id>
        <direccion>PLAZA IGLESIA CRUZ DEL SEÑOR 1A</direccion>
        <latitud>28.46480577467035</latitud>
        <longitud>-16.27180633074528</longitud>
        <numValoraciones>0</numValoraciones>
        <calificacionMedia>0.0</calificacionMedia>
        <url>http://localhost:8082/api/ciudades/a051bc07-a08b-4cbe-8295-0e6bac14a686/aparcamientos/628ca27c5d03cf4ffab219bd</url>
    </aparcamientos>
    <aparcamientos>
        <id>628ca27c5d03cf4ffab219be</id>
        <direccion>CALLE RIO GENIL 5</direccion>
        <latitud>28.46893013785594</latitud>
        <longitud>-16.27927429703832</longitud>
        <numValoraciones>0</numValoraciones>
        <calificacionMedia>0.0</calificacionMedia>
        <url>http://localhost:8082/api/ciudades/a051bc07-a08b-4cbe-8295-0e6bac14a686/aparcamientos/628ca27c5d03cf4ffab219be</url>
    </aparcamientos>
    <aparcamientos>
        <id>628ca27c5d03cf4ffab219bf</id>
        <direccion>CALLE LIBIA 7</direccion>
        <latitud>28.4629973677646</latitud>
        <longitud>-16.28512545774964</longitud>
        <numValoraciones>0</numValoraciones>
        <calificacionMedia>0.0</calificacionMedia>
        <url>http://localhost:8082/api/ciudades/a051bc07-a08b-4cbe-8295-0e6bac14a686/aparcamientos/628ca27c5d03cf4ffab219bf</url>
    </aparcamientos>
    <aparcamientos>
        <id>628ca27c5d03cf4ffab219c0</id>
        <direccion>CALLE FRANCISCO PIZARRO 10</direccion>
        <latitud>28.46495264109592</latitud>
        <longitud>-16.27765163108222</longitud>
        <numValoraciones>0</numValoraciones>
        <calificacionMedia>0.0</calificacionMedia>
        <url>http://localhost:8082/api/ciudades/a051bc07-a08b-4cbe-8295-0e6bac14a686/aparcamientos/628ca27c5d03cf4ffab219c0</url>
    </aparcamientos>
    <aparcamientos>
        <id>628ca27c5d03cf4ffab219c1</id>
        <direccion>CALLE BIBIANA 23</direccion>
        <latitud>28.46258296336213</latitud>
        <longitud>-16.28605741363575</longitud>
        <numValoraciones>0</numValoraciones>
        <calificacionMedia>0.0</calificacionMedia>
        <url>http://localhost:8082/api/ciudades/a051bc07-a08b-4cbe-8295-0e6bac14a686/aparcamientos/628ca27c5d03cf4ffab219c1</url>
    </aparcamientos>
    <aparcamientos>
        <id>628ca27c5d03cf4ffab219c2</id>
        <direccion>CALLE NIGERIA 11</direccion>
        <latitud>28.46298248872882</latitud>
        <longitud>-16.28557813658851</longitud>
        <numValoraciones>0</numValoraciones>
        <calificacionMedia>0.0</calificacionMedia>
        <url>http://localhost:8082/api/ciudades/a051bc07-a08b-4cbe-8295-0e6bac14a686/aparcamientos/628ca27c5d03cf4ffab219c2</url>
    </aparcamientos>
    <aparcamientos>
        <id>628ca27c5d03cf4ffab219c3</id>
        <direccion>CALLE ARABIA 33</direccion>
        <latitud>28.46195496432123</latitud>
        <longitud>-16.28532953857434</longitud>
        <numValoraciones>0</numValoraciones>
        <calificacionMedia>0.0</calificacionMedia>
        <url>http://localhost:8082/api/ciudades/a051bc07-a08b-4cbe-8295-0e6bac14a686/aparcamientos/628ca27c5d03cf4ffab219c3</url>
    </aparcamientos>
    <aparcamientos>
        <id>628ca27c5d03cf4ffab219c4</id>
        <direccion>CALLE FRANCISCO PIZARRO 2</direccion>
        <latitud>28.46461018953274</latitud>
        <longitud>-16.27753698066112</longitud>
        <numValoraciones>0</numValoraciones>
        <calificacionMedia>0.0</calificacionMedia>
        <url>http://localhost:8082/api/ciudades/a051bc07-a08b-4cbe-8295-0e6bac14a686/aparcamientos/628ca27c5d03cf4ffab219c4</url>
    </aparcamientos>
    <aparcamientos>
        <id>628ca27c5d03cf4ffab219c5</id>
        <direccion>AVENIDA BENITO PEREZ ARMAS 33</direccion>
        <latitud>28.46297024580261</latitud>
        <longitud>-16.26803821543236</longitud>
        <numValoraciones>0</numValoraciones>
        <calificacionMedia>0.0</calificacionMedia>
        <url>http://localhost:8082/api/ciudades/a051bc07-a08b-4cbe-8295-0e6bac14a686/aparcamientos/628ca27c5d03cf4ffab219c5</url>
    </aparcamientos>
    <aparcamientos>
        <id>628ca27c5d03cf4ffab219c6</id>
        <direccion>CALLE FERMIN MORIN 2</direccion>
        <latitud>28.46638117613593</latitud>
        <longitud>-16.26848704047054</longitud>
        <numValoraciones>0</numValoraciones>
        <calificacionMedia>0.0</calificacionMedia>
        <url>http://localhost:8082/api/ciudades/a051bc07-a08b-4cbe-8295-0e6bac14a686/aparcamientos/628ca27c5d03cf4ffab219c6</url>
    </aparcamientos>
    <aparcamientos>
        <id>628ca27c5d03cf4ffab219c7</id>
        <direccion>CALLE RIO BIDASOA 4</direccion>
        <latitud>28.47050724956212</latitud>
        <longitud>-16.27609011665952</longitud>
        <numValoraciones>0</numValoraciones>
        <calificacionMedia>0.0</calificacionMedia>
        <url>http://localhost:8082/api/ciudades/a051bc07-a08b-4cbe-8295-0e6bac14a686/aparcamientos/628ca27c5d03cf4ffab219c7</url>
    </aparcamientos>
    <aparcamientos>
        <id>628ca27c5d03cf4ffab219c8</id>
        <direccion>CALLE PEDRO PINTO DE LA ROSA 18</direccion>
        <latitud>28.46925719201485</latitud>
        <longitud>-16.26698402781649</longitud>
        <numValoraciones>0</numValoraciones>
        <calificacionMedia>0.0</calificacionMedia>
        <url>http://localhost:8082/api/ciudades/a051bc07-a08b-4cbe-8295-0e6bac14a686/aparcamientos/628ca27c5d03cf4ffab219c8</url>
    </aparcamientos>
    <aparcamientos>
        <id>628ca27c5d03cf4ffab219c9</id>
        <direccion>CALLE JOSE CUBILES 4</direccion>
        <latitud>28.46368027500074</latitud>
        <longitud>-16.27154676623776</longitud>
        <numValoraciones>0</numValoraciones>
        <calificacionMedia>0.0</calificacionMedia>
        <url>http://localhost:8082/api/ciudades/a051bc07-a08b-4cbe-8295-0e6bac14a686/aparcamientos/628ca27c5d03cf4ffab219c9</url>
    </aparcamientos>
    <aparcamientos>
        <id>628ca27c5d03cf4ffab219ca</id>
        <direccion>CALLE JOSE CUBILES 2</direccion>
        <latitud>28.46376759382995</latitud>
        <longitud>-16.27143146783275</longitud>
        <numValoraciones>0</numValoraciones>
        <calificacionMedia>0.0</calificacionMedia>
        <url>http://localhost:8082/api/ciudades/a051bc07-a08b-4cbe-8295-0e6bac14a686/aparcamientos/628ca27c5d03cf4ffab219ca</url>
    </aparcamientos>
    <aparcamientos>
        <id>628ca27c5d03cf4ffab219cb</id>
        <direccion>CALLE PRINCIPE RUYMAN 41</direccion>
        <latitud>28.46996807289212</latitud>
        <longitud>-16.27096064960707</longitud>
        <numValoraciones>0</numValoraciones>
        <calificacionMedia>0.0</calificacionMedia>
        <url>http://localhost:8082/api/ciudades/a051bc07-a08b-4cbe-8295-0e6bac14a686/aparcamientos/628ca27c5d03cf4ffab219cb</url>
    </aparcamientos>
    <aparcamientos>
        <id>628ca27c5d03cf4ffab219cc</id>
        <direccion>CALLE GRANADOS 23</direccion>
        <latitud>28.46304250269871</latitud>
        <longitud>-16.2723649808748</longitud>
        <numValoraciones>0</numValoraciones>
        <calificacionMedia>0.0</calificacionMedia>
        <url>http://localhost:8082/api/ciudades/a051bc07-a08b-4cbe-8295-0e6bac14a686/aparcamientos/628ca27c5d03cf4ffab219cc</url>
    </aparcamientos>
    <aparcamientos>
        <id>628ca27c5d03cf4ffab219cd</id>
        <direccion>CALLE JOSE RODRIGUEZ MOURE 8</direccion>
        <latitud>28.4666701770967</latitud>
        <longitud>-16.27377614300889</longitud>
        <numValoraciones>0</numValoraciones>
        <calificacionMedia>0.0</calificacionMedia>
        <url>http://localhost:8082/api/ciudades/a051bc07-a08b-4cbe-8295-0e6bac14a686/aparcamientos/628ca27c5d03cf4ffab219cd</url>
    </aparcamientos>
    <aparcamientos>
        <id>628ca27c5d03cf4ffab219ce</id>
        <direccion>CALLE PRINCIPE RUYMAN 23</direccion>
        <latitud>28.46951110782836</latitud>
        <longitud>-16.27120803948998</longitud>
        <numValoraciones>0</numValoraciones>
        <calificacionMedia>0.0</calificacionMedia>
        <url>http://localhost:8082/api/ciudades/a051bc07-a08b-4cbe-8295-0e6bac14a686/aparcamientos/628ca27c5d03cf4ffab219ce</url>
    </aparcamientos>
    <aparcamientos>
        <id>628ca27c5d03cf4ffab219cf</id>
        <direccion>CALLE JUAN RUMEU GARCIA 76</direccion>
        <latitud>28.46595731197175</latitud>
        <longitud>-16.27525056457566</longitud>
        <numValoraciones>0</numValoraciones>
        <calificacionMedia>0.0</calificacionMedia>
        <url>http://localhost:8082/api/ciudades/a051bc07-a08b-4cbe-8295-0e6bac14a686/aparcamientos/628ca27c5d03cf4ffab219cf</url>
    </aparcamientos>
    <aparcamientos>
        <id>628ca27c5d03cf4ffab219d0</id>
        <direccion>CALLE GUIA DE ISORA 1</direccion>
        <latitud>28.47062125803232</latitud>
        <longitud>-16.27446162514882</longitud>
        <numValoraciones>0</numValoraciones>
        <calificacionMedia>0.0</calificacionMedia>
        <url>http://localhost:8082/api/ciudades/a051bc07-a08b-4cbe-8295-0e6bac14a686/aparcamientos/628ca27c5d03cf4ffab219d0</url>
    </aparcamientos>
    <aparcamientos>
        <id>628ca27c5d03cf4ffab219d1</id>
        <direccion>CALLE PRINCESA GUACIMARA 33</direccion>
        <latitud>28.46951713349899</latitud>
        <longitud>-16.27075014823278</longitud>
        <numValoraciones>0</numValoraciones>
        <calificacionMedia>0.0</calificacionMedia>
        <url>http://localhost:8082/api/ciudades/a051bc07-a08b-4cbe-8295-0e6bac14a686/aparcamientos/628ca27c5d03cf4ffab219d1</url>
    </aparcamientos>
    <aparcamientos>
        <id>628ca27c5d03cf4ffab219d2</id>
        <direccion>CALLE ALCALDE MANDILLO TEJERA 35</direccion>
        <latitud>28.46168281972926</latitud>
        <longitud>-16.27296253392129</longitud>
        <numValoraciones>0</numValoraciones>
        <calificacionMedia>0.0</calificacionMedia>
        <url>http://localhost:8082/api/ciudades/a051bc07-a08b-4cbe-8295-0e6bac14a686/aparcamientos/628ca27c5d03cf4ffab219d2</url>
    </aparcamientos>
    <aparcamientos>
        <id>628ca27c5d03cf4ffab219d3</id>
        <direccion>CALLE AGUSTIN CABRERA DIAZ 2</direccion>
        <latitud>28.46618125573064</latitud>
        <longitud>-16.27268204375855</longitud>
        <numValoraciones>0</numValoraciones>
        <calificacionMedia>0.0</calificacionMedia>
        <url>http://localhost:8082/api/ciudades/a051bc07-a08b-4cbe-8295-0e6bac14a686/aparcamientos/628ca27c5d03cf4ffab219d3</url>
    </aparcamientos>
    <aparcamientos>
        <id>628ca27c5d03cf4ffab219d4</id>
        <direccion>CALLE HERO 52</direccion>
        <latitud>28.46934969291492</latitud>
        <longitud>-16.27323472171873</longitud>
        <numValoraciones>0</numValoraciones>
        <calificacionMedia>0.0</calificacionMedia>
        <url>http://localhost:8082/api/ciudades/a051bc07-a08b-4cbe-8295-0e6bac14a686/aparcamientos/628ca27c5d03cf4ffab219d4</url>
    </aparcamientos>
    <aparcamientos>
        <id>628ca27c5d03cf4ffab219d5</id>
        <direccion>CALLE GARCILASO DE LA VEGA 15A</direccion>
        <latitud>28.46168016652457</latitud>
        <longitud>-16.25807674592866</longitud>
        <numValoraciones>0</numValoraciones>
        <calificacionMedia>0.0</calificacionMedia>
        <url>http://localhost:8082/api/ciudades/a051bc07-a08b-4cbe-8295-0e6bac14a686/aparcamientos/628ca27c5d03cf4ffab219d5</url>
    </aparcamientos>
    <aparcamientos>
        <id>628ca27c5d03cf4ffab219d6</id>
        <direccion>AVENIDA JOSE MANUEL GUIMERA 10</direccion>
        <latitud>28.46114149340435</latitud>
        <longitud>-16.25051326492447</longitud>
        <numValoraciones>0</numValoraciones>
        <calificacionMedia>0.0</calificacionMedia>
        <url>http://localhost:8082/api/ciudades/a051bc07-a08b-4cbe-8295-0e6bac14a686/aparcamientos/628ca27c5d03cf4ffab219d6</url>
    </aparcamientos>
    <aparcamientos>
        <id>628ca27c5d03cf4ffab219d7</id>
        <direccion>CALLE DEL PERDON 2</direccion>
        <latitud>28.46929959404107</latitud>
        <longitud>-16.26025103349285</longitud>
        <numValoraciones>0</numValoraciones>
        <calificacionMedia>0.0</calificacionMedia>
        <url>http://localhost:8082/api/ciudades/a051bc07-a08b-4cbe-8295-0e6bac14a686/aparcamientos/628ca27c5d03cf4ffab219d7</url>
    </aparcamientos>
    <aparcamientos>
        <id>628ca27c5d03cf4ffab219d8</id>
        <direccion>CALLE JESUS Y MARIA 43</direccion>
        <latitud>28.46891459301553</latitud>
        <longitud>-16.2568760562945</longitud>
        <numValoraciones>0</numValoraciones>
        <calificacionMedia>0.0</calificacionMedia>
        <url>http://localhost:8082/api/ciudades/a051bc07-a08b-4cbe-8295-0e6bac14a686/aparcamientos/628ca27c5d03cf4ffab219d8</url>
    </aparcamientos>
    <aparcamientos>
        <id>628ca27c5d03cf4ffab219d9</id>
        <direccion>CALLE JUAN RUMEU GARCIA 28</direccion>
        <latitud>28.46526366864438</latitud>
        <longitud>-16.2732472721089</longitud>
        <numValoraciones>0</numValoraciones>
        <calificacionMedia>0.0</calificacionMedia>
        <url>http://localhost:8082/api/ciudades/a051bc07-a08b-4cbe-8295-0e6bac14a686/aparcamientos/628ca27c5d03cf4ffab219d9</url>
    </aparcamientos>
    <aparcamientos>
        <id>628ca27c5d03cf4ffab219da</id>
        <direccion>CALLE POGGI BORSOTTO 4</direccion>
        <latitud>28.46605895313136</latitud>
        <longitud>-16.2682507353355</longitud>
        <numValoraciones>0</numValoraciones>
        <calificacionMedia>0.0</calificacionMedia>
        <url>http://localhost:8082/api/ciudades/a051bc07-a08b-4cbe-8295-0e6bac14a686/aparcamientos/628ca27c5d03cf4ffab219da</url>
    </aparcamientos>
    <aparcamientos>
        <id>628ca27c5d03cf4ffab219db</id>
        <direccion>AVENIDA DE BELGICA 50</direccion>
        <latitud>28.4653535142773</latitud>
        <longitud>-16.26776283294666</longitud>
        <numValoraciones>0</numValoraciones>
        <calificacionMedia>0.0</calificacionMedia>
        <url>http://localhost:8082/api/ciudades/a051bc07-a08b-4cbe-8295-0e6bac14a686/aparcamientos/628ca27c5d03cf4ffab219db</url>
    </aparcamientos>
    <aparcamientos>
        <id>628ca27c5d03cf4ffab219dc</id>
        <direccion>CALLE SIMON BOLIVAR 22</direccion>
        <latitud>28.46322385885232</latitud>
        <longitud>-16.27123887209833</longitud>
        <numValoraciones>0</numValoraciones>
        <calificacionMedia>0.0</calificacionMedia>
        <url>http://localhost:8082/api/ciudades/a051bc07-a08b-4cbe-8295-0e6bac14a686/aparcamientos/628ca27c5d03cf4ffab219dc</url>
    </aparcamientos>
    <aparcamientos>
        <id>628ca27c5d03cf4ffab219dd</id>
        <direccion>CALLE ALVAREZ DE LUGO 36</direccion>
        <latitud>28.46809177598472</latitud>
        <longitud>-16.25798038578791</longitud>
        <numValoraciones>0</numValoraciones>
        <calificacionMedia>0.0</calificacionMedia>
        <url>http://localhost:8082/api/ciudades/a051bc07-a08b-4cbe-8295-0e6bac14a686/aparcamientos/628ca27c5d03cf4ffab219dd</url>
    </aparcamientos>
    <aparcamientos>
        <id>628ca27c5d03cf4ffab219de</id>
        <direccion>CALLE ALVAREZ DE LUGO 41</direccion>
        <latitud>28.46793748924692</latitud>
        <longitud>-16.25793097858168</longitud>
        <numValoraciones>0</numValoraciones>
        <calificacionMedia>0.0</calificacionMedia>
        <url>http://localhost:8082/api/ciudades/a051bc07-a08b-4cbe-8295-0e6bac14a686/aparcamientos/628ca27c5d03cf4ffab219de</url>
    </aparcamientos>
    <aparcamientos>
        <id>628ca27c5d03cf4ffab219df</id>
        <direccion>CALLE ALVAREZ DE LUGO 45</direccion>
        <latitud>28.46766070013998</latitud>
        <longitud>-16.25799158263986</longitud>
        <numValoraciones>0</numValoraciones>
        <calificacionMedia>0.0</calificacionMedia>
        <url>http://localhost:8082/api/ciudades/a051bc07-a08b-4cbe-8295-0e6bac14a686/aparcamientos/628ca27c5d03cf4ffab219df</url>
    </aparcamientos>
    <aparcamientos>
        <id>628ca27c5d03cf4ffab219e0</id>
        <direccion>CALLE PRINCESA DACIL 16</direccion>
        <latitud>28.4687619746059</latitud>
        <longitud>-16.27064134875226</longitud>
        <numValoraciones>0</numValoraciones>
        <calificacionMedia>0.0</calificacionMedia>
        <url>http://localhost:8082/api/ciudades/a051bc07-a08b-4cbe-8295-0e6bac14a686/aparcamientos/628ca27c5d03cf4ffab219e0</url>
    </aparcamientos>
    <aparcamientos>
        <id>628ca27c5d03cf4ffab219e1</id>
        <direccion>AVENIDA ANGEL ROMERO 13</direccion>
        <latitud>28.46249622986196</latitud>
        <longitud>-16.27342311832662</longitud>
        <numValoraciones>0</numValoraciones>
        <calificacionMedia>0.0</calificacionMedia>
        <url>http://localhost:8082/api/ciudades/a051bc07-a08b-4cbe-8295-0e6bac14a686/aparcamientos/628ca27c5d03cf4ffab219e1</url>
    </aparcamientos>
    <aparcamientos>
        <id>628ca27c5d03cf4ffab219e2</id>
        <direccion>CALLE COMODORO ROLIN 4</direccion>
        <latitud>28.46440560938854</latitud>
        <longitud>-16.26641553413797</longitud>
        <numValoraciones>0</numValoraciones>
        <calificacionMedia>0.0</calificacionMedia>
        <url>http://localhost:8082/api/ciudades/a051bc07-a08b-4cbe-8295-0e6bac14a686/aparcamientos/628ca27c5d03cf4ffab219e2</url>
    </aparcamientos>
    <aparcamientos>
        <id>628ca27c5d03cf4ffab219e3</id>
        <direccion>CALLE LEOCADIO MACHADO 7</direccion>
        <latitud>28.46600100225684</latitud>
        <longitud>-16.27288599743013</longitud>
        <numValoraciones>0</numValoraciones>
        <calificacionMedia>0.0</calificacionMedia>
        <url>http://localhost:8082/api/ciudades/a051bc07-a08b-4cbe-8295-0e6bac14a686/aparcamientos/628ca27c5d03cf4ffab219e3</url>
    </aparcamientos>
    <aparcamientos>
        <id>628ca27c5d03cf4ffab219e4</id>
        <direccion>CALLE LOS MOLINOS 44</direccion>
        <latitud>28.460978038555</latitud>
        <longitud>-16.25521050374774</longitud>
        <numValoraciones>0</numValoraciones>
        <calificacionMedia>0.0</calificacionMedia>
        <url>http://localhost:8082/api/ciudades/a051bc07-a08b-4cbe-8295-0e6bac14a686/aparcamientos/628ca27c5d03cf4ffab219e4</url>
    </aparcamientos>
    <aparcamientos>
        <id>628ca27c5d03cf4ffab219e5</id>
        <direccion>CALLE GUANCHE ZEBENZUI 40</direccion>
        <latitud>28.46860309138182</latitud>
        <longitud>-16.26917397102092</longitud>
        <numValoraciones>0</numValoraciones>
        <calificacionMedia>0.0</calificacionMedia>
        <url>http://localhost:8082/api/ciudades/a051bc07-a08b-4cbe-8295-0e6bac14a686/aparcamientos/628ca27c5d03cf4ffab219e5</url>
    </aparcamientos>
    <aparcamientos>
        <id>628ca27c5d03cf4ffab219e6</id>
        <direccion>PLAZA DE LA VICTORIA 11</direccion>
        <latitud>28.45847219058764</latitud>
        <longitud>-16.25964244333354</longitud>
        <numValoraciones>0</numValoraciones>
        <calificacionMedia>0.0</calificacionMedia>
        <url>http://localhost:8082/api/ciudades/a051bc07-a08b-4cbe-8295-0e6bac14a686/aparcamientos/628ca27c5d03cf4ffab219e6</url>
    </aparcamientos>
    <aparcamientos>
        <id>628ca27c5d03cf4ffab219e7</id>
        <direccion>CALLE HELIODORO RODRIGUEZ LOPEZ 7</direccion>
        <latitud>28.46121640099047</latitud>
        <longitud>-16.26217345861754</longitud>
        <numValoraciones>0</numValoraciones>
        <calificacionMedia>0.0</calificacionMedia>
        <url>http://localhost:8082/api/ciudades/a051bc07-a08b-4cbe-8295-0e6bac14a686/aparcamientos/628ca27c5d03cf4ffab219e7</url>
    </aparcamientos>
    <aparcamientos>
        <id>628ca27c5d03cf4ffab219e8</id>
        <direccion>CALLE HELIODORO RODRIGUEZ LOPEZ 7</direccion>
        <latitud>28.46117206285416</latitud>
        <longitud>-16.26218469215375</longitud>
        <numValoraciones>0</numValoraciones>
        <calificacionMedia>0.0</calificacionMedia>
        <url>http://localhost:8082/api/ciudades/a051bc07-a08b-4cbe-8295-0e6bac14a686/aparcamientos/628ca27c5d03cf4ffab219e8</url>
    </aparcamientos>
    <aparcamientos>
        <id>628ca27c5d03cf4ffab219e9</id>
        <direccion>CALLE TOME CANO 5</direccion>
        <latitud>28.45945572657013</latitud>
        <longitud>-16.26211381265175</longitud>
        <numValoraciones>0</numValoraciones>
        <calificacionMedia>0.0</calificacionMedia>
        <url>http://localhost:8082/api/ciudades/a051bc07-a08b-4cbe-8295-0e6bac14a686/aparcamientos/628ca27c5d03cf4ffab219e9</url>
    </aparcamientos>
    <aparcamientos>
        <id>628ca27c5d03cf4ffab219ea</id>
        <direccion>CALLE GONGORA 2</direccion>
        <latitud>28.46002906787683</latitud>
        <longitud>-16.25864265351554</longitud>
        <numValoraciones>0</numValoraciones>
        <calificacionMedia>0.0</calificacionMedia>
        <url>http://localhost:8082/api/ciudades/a051bc07-a08b-4cbe-8295-0e6bac14a686/aparcamientos/628ca27c5d03cf4ffab219ea</url>
    </aparcamientos>
    <aparcamientos>
        <id>628ca27c5d03cf4ffab219eb</id>
        <direccion>AVENIDA BENITO PEREZ ARMAS 1</direccion>
        <latitud>28.45879989143479</latitud>
        <longitud>-16.26399151367972</longitud>
        <numValoraciones>0</numValoraciones>
        <calificacionMedia>0.0</calificacionMedia>
        <url>http://localhost:8082/api/ciudades/a051bc07-a08b-4cbe-8295-0e6bac14a686/aparcamientos/628ca27c5d03cf4ffab219eb</url>
    </aparcamientos>
    <aparcamientos>
        <id>628ca27c5d03cf4ffab219ec</id>
        <direccion>AVENIDA BENITO PEREZ ARMAS 1</direccion>
        <latitud>28.45876465610072</latitud>
        <longitud>-16.26395701425999</longitud>
        <numValoraciones>0</numValoraciones>
        <calificacionMedia>0.0</calificacionMedia>
        <url>http://localhost:8082/api/ciudades/a051bc07-a08b-4cbe-8295-0e6bac14a686/aparcamientos/628ca27c5d03cf4ffab219ec</url>
    </aparcamientos>
    <aparcamientos>
        <id>628ca27c5d03cf4ffab219ed</id>
        <direccion>CALLE AZORIN 11</direccion>
        <latitud>28.45815854335816</latitud>
        <longitud>-16.26629749798357</longitud>
        <numValoraciones>0</numValoraciones>
        <calificacionMedia>0.0</calificacionMedia>
        <url>http://localhost:8082/api/ciudades/a051bc07-a08b-4cbe-8295-0e6bac14a686/aparcamientos/628ca27c5d03cf4ffab219ed</url>
    </aparcamientos>
    <aparcamientos>
        <id>628ca27c5d03cf4ffab219ee</id>
        <direccion>CALLE NUÑEZ DE BALBOA 19</direccion>
        <latitud>28.45915629819836</latitud>
        <longitud>-16.25953730803225</longitud>
        <numValoraciones>0</numValoraciones>
        <calificacionMedia>0.0</calificacionMedia>
        <url>http://localhost:8082/api/ciudades/a051bc07-a08b-4cbe-8295-0e6bac14a686/aparcamientos/628ca27c5d03cf4ffab219ee</url>
    </aparcamientos>
    <aparcamientos>
        <id>628ca27c5d03cf4ffab219ef</id>
        <direccion>CALLE NUÑEZ DE BALBOA 3</direccion>
        <latitud>28.45935600643018</latitud>
        <longitud>-16.25945101044452</longitud>
        <numValoraciones>0</numValoraciones>
        <calificacionMedia>0.0</calificacionMedia>
        <url>http://localhost:8082/api/ciudades/a051bc07-a08b-4cbe-8295-0e6bac14a686/aparcamientos/628ca27c5d03cf4ffab219ef</url>
    </aparcamientos>
    <aparcamientos>
        <id>628ca27c5d03cf4ffab219f0</id>
        <direccion>CALLE LEPANTO 2</direccion>
        <latitud>28.45959203722228</latitud>
        <longitud>-16.25791867204805</longitud>
        <numValoraciones>0</numValoraciones>
        <calificacionMedia>0.0</calificacionMedia>
        <url>http://localhost:8082/api/ciudades/a051bc07-a08b-4cbe-8295-0e6bac14a686/aparcamientos/628ca27c5d03cf4ffab219f0</url>
    </aparcamientos>
    <aparcamientos>
        <id>628ca27c5d03cf4ffab219f1</id>
        <direccion>AVENIDA BENITO PEREZ ARMAS 2</direccion>
        <latitud>28.45818289572087</latitud>
        <longitud>-16.26304381463162</longitud>
        <numValoraciones>0</numValoraciones>
        <calificacionMedia>0.0</calificacionMedia>
        <url>http://localhost:8082/api/ciudades/a051bc07-a08b-4cbe-8295-0e6bac14a686/aparcamientos/628ca27c5d03cf4ffab219f1</url>
    </aparcamientos>
    <aparcamientos>
        <id>628ca27c5d03cf4ffab219f2</id>
        <direccion>CALLE LEGAZPI 6</direccion>
        <latitud>28.45957915620768</latitud>
        <longitud>-16.26156401058568</longitud>
        <numValoraciones>0</numValoraciones>
        <calificacionMedia>0.0</calificacionMedia>
        <url>http://localhost:8082/api/ciudades/a051bc07-a08b-4cbe-8295-0e6bac14a686/aparcamientos/628ca27c5d03cf4ffab219f2</url>
    </aparcamientos>
    <aparcamientos>
        <id>628ca27c5d03cf4ffab219f3</id>
        <direccion>CALLE FRAGATA DANMARK 6</direccion>
        <latitud>28.45877172976845</latitud>
        <longitud>-16.26304288673539</longitud>
        <numValoraciones>0</numValoraciones>
        <calificacionMedia>0.0</calificacionMedia>
        <url>http://localhost:8082/api/ciudades/a051bc07-a08b-4cbe-8295-0e6bac14a686/aparcamientos/628ca27c5d03cf4ffab219f3</url>
    </aparcamientos>
    <aparcamientos>
        <id>628ca27c5d03cf4ffab219f4</id>
        <direccion>CALLE QUEVEDO 5</direccion>
        <latitud>28.46153338432817</latitud>
        <longitud>-16.25774469216929</longitud>
        <numValoraciones>0</numValoraciones>
        <calificacionMedia>0.0</calificacionMedia>
        <url>http://localhost:8082/api/ciudades/a051bc07-a08b-4cbe-8295-0e6bac14a686/aparcamientos/628ca27c5d03cf4ffab219f4</url>
    </aparcamientos>
    <aparcamientos>
        <id>628ca27c5d03cf4ffab219f5</id>
        <direccion>CALLE GARCILASO DE LA VEGA 25</direccion>
        <latitud>28.45985684975023</latitud>
        <longitud>-16.25767747923241</longitud>
        <numValoraciones>0</numValoraciones>
        <calificacionMedia>0.0</calificacionMedia>
        <url>http://localhost:8082/api/ciudades/a051bc07-a08b-4cbe-8295-0e6bac14a686/aparcamientos/628ca27c5d03cf4ffab219f5</url>
    </aparcamientos>
    <aparcamientos>
        <id>628ca27c5d03cf4ffab219f6</id>
        <direccion>CALLE VALLE INCLAN 12</direccion>
        <latitud>28.4592512838765</latitud>
        <longitud>-16.26615967340845</longitud>
        <numValoraciones>0</numValoraciones>
        <calificacionMedia>0.0</calificacionMedia>
        <url>http://localhost:8082/api/ciudades/a051bc07-a08b-4cbe-8295-0e6bac14a686/aparcamientos/628ca27c5d03cf4ffab219f6</url>
    </aparcamientos>
    <aparcamientos>
        <id>628ca27c5d03cf4ffab219f7</id>
        <direccion>CALLE VALLE INCLAN 5</direccion>
        <latitud>28.45946624484544</latitud>
        <longitud>-16.26563311668227</longitud>
        <numValoraciones>0</numValoraciones>
        <calificacionMedia>0.0</calificacionMedia>
        <url>http://localhost:8082/api/ciudades/a051bc07-a08b-4cbe-8295-0e6bac14a686/aparcamientos/628ca27c5d03cf4ffab219f7</url>
    </aparcamientos>
    <aparcamientos>
        <id>628ca27c5d03cf4ffab219f8</id>
        <direccion>CALLE LEONCIO RODRIGUEZ 7</direccion>
        <latitud>28.46148495073015</latitud>
        <longitud>-16.25161010040432</longitud>
        <numValoraciones>0</numValoraciones>
        <calificacionMedia>0.0</calificacionMedia>
        <url>http://localhost:8082/api/ciudades/a051bc07-a08b-4cbe-8295-0e6bac14a686/aparcamientos/628ca27c5d03cf4ffab219f8</url>
    </aparcamientos>
    <aparcamientos>
        <id>628ca27c5d03cf4ffab219f9</id>
        <direccion>CALLE ALVAREZ DE LUGO 58</direccion>
        <latitud>28.46575778051225</latitud>
        <longitud>-16.25836250932895</longitud>
        <numValoraciones>0</numValoraciones>
        <calificacionMedia>0.0</calificacionMedia>
        <url>http://localhost:8082/api/ciudades/a051bc07-a08b-4cbe-8295-0e6bac14a686/aparcamientos/628ca27c5d03cf4ffab219f9</url>
    </aparcamientos>
    <aparcamientos>
        <id>628ca27c5d03cf4ffab219fa</id>
        <direccion>CALLE HELIODORO RODRIGUEZ GONZALEZ 14</direccion>
        <latitud>28.46390213522831</latitud>
        <longitud>-16.26217991384349</longitud>
        <numValoraciones>0</numValoraciones>
        <calificacionMedia>0.0</calificacionMedia>
        <url>http://localhost:8082/api/ciudades/a051bc07-a08b-4cbe-8295-0e6bac14a686/aparcamientos/628ca27c5d03cf4ffab219fa</url>
    </aparcamientos>
    <aparcamientos>
        <id>628ca27c5d03cf4ffab219fb</id>
        <direccion>CALLE RAMON Y CAJAL 15</direccion>
        <latitud>28.46620949708743</latitud>
        <longitud>-16.2576988845384</longitud>
        <numValoraciones>0</numValoraciones>
        <calificacionMedia>0.0</calificacionMedia>
        <url>http://localhost:8082/api/ciudades/a051bc07-a08b-4cbe-8295-0e6bac14a686/aparcamientos/628ca27c5d03cf4ffab219fb</url>
    </aparcamientos>
    <aparcamientos>
        <id>628ca27c5d03cf4ffab219fc</id>
        <direccion>CALLE RAMON Y CAJAL 19</direccion>
        <latitud>28.46612363502839</latitud>
        <longitud>-16.25779754588532</longitud>
        <numValoraciones>0</numValoraciones>
        <calificacionMedia>0.0</calificacionMedia>
        <url>http://localhost:8082/api/ciudades/a051bc07-a08b-4cbe-8295-0e6bac14a686/aparcamientos/628ca27c5d03cf4ffab219fc</url>
    </aparcamientos>
    <aparcamientos>
        <id>628ca27c5d03cf4ffab219fd</id>
        <direccion>CALLE DE LOS SUEÑOS 63</direccion>
        <latitud>28.47011194741542</latitud>
        <longitud>-16.2630636245122</longitud>
        <numValoraciones>0</numValoraciones>
        <calificacionMedia>0.0</calificacionMedia>
        <url>http://localhost:8082/api/ciudades/a051bc07-a08b-4cbe-8295-0e6bac14a686/aparcamientos/628ca27c5d03cf4ffab219fd</url>
    </aparcamientos>
    <aparcamientos>
        <id>628ca27c5d03cf4ffab219fe</id>
        <direccion>CALLE EMILIO LOPEZ 28</direccion>
        <latitud>28.46059903285203</latitud>
        <longitud>-16.25310748972795</longitud>
        <numValoraciones>0</numValoraciones>
        <calificacionMedia>0.0</calificacionMedia>
        <url>http://localhost:8082/api/ciudades/a051bc07-a08b-4cbe-8295-0e6bac14a686/aparcamientos/628ca27c5d03cf4ffab219fe</url>
    </aparcamientos>
    <aparcamientos>
        <id>628ca27c5d03cf4ffab219ff</id>
        <direccion>AVENIDA BUENOS AIRES 55</direccion>
        <latitud>28.46080286431021</latitud>
        <longitud>-16.25454475866669</longitud>
        <numValoraciones>0</numValoraciones>
        <calificacionMedia>0.0</calificacionMedia>
        <url>http://localhost:8082/api/ciudades/a051bc07-a08b-4cbe-8295-0e6bac14a686/aparcamientos/628ca27c5d03cf4ffab219ff</url>
    </aparcamientos>
    <aparcamientos>
        <id>628ca27c5d03cf4ffab21a00</id>
        <direccion>CALLE BENAVIDES 11</direccion>
        <latitud>28.4696008105314</latitud>
        <longitud>-16.25896344300788</longitud>
        <numValoraciones>0</numValoraciones>
        <calificacionMedia>0.0</calificacionMedia>
        <url>http://localhost:8082/api/ciudades/a051bc07-a08b-4cbe-8295-0e6bac14a686/aparcamientos/628ca27c5d03cf4ffab21a00</url>
    </aparcamientos>
    <aparcamientos>
        <id>628ca27c5d03cf4ffab21a01</id>
        <direccion>CALLE GARCILASO DE LA VEGA 10</direccion>
        <latitud>28.46257157437259</latitud>
        <longitud>-16.25832391676893</longitud>
        <numValoraciones>0</numValoraciones>
        <calificacionMedia>0.0</calificacionMedia>
        <url>http://localhost:8082/api/ciudades/a051bc07-a08b-4cbe-8295-0e6bac14a686/aparcamientos/628ca27c5d03cf4ffab21a01</url>
    </aparcamientos>
    <aparcamientos>
        <id>628ca27c5d03cf4ffab21a02</id>
        <direccion>CALLE CASTRO 33</direccion>
        <latitud>28.4654567436364</latitud>
        <longitud>-16.26057860496549</longitud>
        <numValoraciones>0</numValoraciones>
        <calificacionMedia>0.0</calificacionMedia>
        <url>http://localhost:8082/api/ciudades/a051bc07-a08b-4cbe-8295-0e6bac14a686/aparcamientos/628ca27c5d03cf4ffab21a02</url>
    </aparcamientos>
    <aparcamientos>
        <id>628ca27c5d03cf4ffab21a03</id>
        <direccion>CALLE GILBERTO CAYOL LOPEZ 6</direccion>
        <latitud>28.46229107659116</latitud>
        <longitud>-16.26311614411726</longitud>
        <numValoraciones>0</numValoraciones>
        <calificacionMedia>0.0</calificacionMedia>
        <url>http://localhost:8082/api/ciudades/a051bc07-a08b-4cbe-8295-0e6bac14a686/aparcamientos/628ca27c5d03cf4ffab21a03</url>
    </aparcamientos>
    <aparcamientos>
        <id>628ca27c5d03cf4ffab21a04</id>
        <direccion>CALLE ANTONIO DE NEBRIJA 11</direccion>
        <latitud>28.46262775537871</latitud>
        <longitud>-16.25752530850815</longitud>
        <numValoraciones>0</numValoraciones>
        <calificacionMedia>0.0</calificacionMedia>
        <url>http://localhost:8082/api/ciudades/a051bc07-a08b-4cbe-8295-0e6bac14a686/aparcamientos/628ca27c5d03cf4ffab21a04</url>
    </aparcamientos>
    <aparcamientos>
        <id>628ca27c5d03cf4ffab21a05</id>
        <direccion>PLAZA LOS SABANDEÑOS</direccion>
        <latitud>28.46186255913113</latitud>
        <longitud>-16.26216594000879</longitud>
        <numValoraciones>0</numValoraciones>
        <calificacionMedia>0.0</calificacionMedia>
        <url>http://localhost:8082/api/ciudades/a051bc07-a08b-4cbe-8295-0e6bac14a686/aparcamientos/628ca27c5d03cf4ffab21a05</url>
    </aparcamientos>
    <aparcamientos>
        <id>628ca27c5d03cf4ffab21a06</id>
        <direccion>CALLE COMANDANTE SANCHEZ PINTO 15</direccion>
        <latitud>28.47006247342177</latitud>
        <longitud>-16.26095189754632</longitud>
        <numValoraciones>0</numValoraciones>
        <calificacionMedia>0.0</calificacionMedia>
        <url>http://localhost:8082/api/ciudades/a051bc07-a08b-4cbe-8295-0e6bac14a686/aparcamientos/628ca27c5d03cf4ffab21a06</url>
    </aparcamientos>
    <aparcamientos>
        <id>628ca27c5d03cf4ffab21a07</id>
        <direccion>CALLE BERNARDINO SEMAN 20</direccion>
        <latitud>28.46328100726559</latitud>
        <longitud>-16.26281990505407</longitud>
        <numValoraciones>0</numValoraciones>
        <calificacionMedia>0.0</calificacionMedia>
        <url>http://localhost:8082/api/ciudades/a051bc07-a08b-4cbe-8295-0e6bac14a686/aparcamientos/628ca27c5d03cf4ffab21a07</url>
    </aparcamientos>
    <aparcamientos>
        <id>628ca27c5d03cf4ffab21a08</id>
        <direccion>CALLE LA MUTINE 1</direccion>
        <latitud>28.46282799653517</latitud>
        <longitud>-16.26128933282697</longitud>
        <numValoraciones>0</numValoraciones>
        <calificacionMedia>0.0</calificacionMedia>
        <url>http://localhost:8082/api/ciudades/a051bc07-a08b-4cbe-8295-0e6bac14a686/aparcamientos/628ca27c5d03cf4ffab21a08</url>
    </aparcamientos>
    <aparcamientos>
        <id>628ca27c5d03cf4ffab21a09</id>
        <direccion>CALLE LA MUTINE 1</direccion>
        <latitud>28.46280201720965</latitud>
        <longitud>-16.26118619660196</longitud>
        <numValoraciones>0</numValoraciones>
        <calificacionMedia>0.0</calificacionMedia>
        <url>http://localhost:8082/api/ciudades/a051bc07-a08b-4cbe-8295-0e6bac14a686/aparcamientos/628ca27c5d03cf4ffab21a09</url>
    </aparcamientos>
    <aparcamientos>
        <id>628ca27c5d03cf4ffab21a0a</id>
        <direccion>CALLE FERNANDO PRIMO DE RIVERA 89</direccion>
        <latitud>28.4698763093118</latitud>
        <longitud>-16.2647564492577</longitud>
        <numValoraciones>0</numValoraciones>
        <calificacionMedia>0.0</calificacionMedia>
        <url>http://localhost:8082/api/ciudades/a051bc07-a08b-4cbe-8295-0e6bac14a686/aparcamientos/628ca27c5d03cf4ffab21a0a</url>
    </aparcamientos>
    <aparcamientos>
        <id>628ca27c5d03cf4ffab21a0b</id>
        <direccion>CALLE PORLIER 21</direccion>
        <latitud>28.4670163603361</latitud>
        <longitud>-16.25806394247724</longitud>
        <numValoraciones>0</numValoraciones>
        <calificacionMedia>0.0</calificacionMedia>
        <url>http://localhost:8082/api/ciudades/a051bc07-a08b-4cbe-8295-0e6bac14a686/aparcamientos/628ca27c5d03cf4ffab21a0b</url>
    </aparcamientos>
    <aparcamientos>
        <id>628ca27c5d03cf4ffab21a0c</id>
        <direccion>CALLE GENERAL SERRANO 75</direccion>
        <latitud>28.46679523715896</latitud>
        <longitud>-16.26106109723815</longitud>
        <numValoraciones>0</numValoraciones>
        <calificacionMedia>0.0</calificacionMedia>
        <url>http://localhost:8082/api/ciudades/a051bc07-a08b-4cbe-8295-0e6bac14a686/aparcamientos/628ca27c5d03cf4ffab21a0c</url>
    </aparcamientos>
    <aparcamientos>
        <id>628ca27c5d03cf4ffab21a0d</id>
        <direccion>CALLE PORLIER 87</direccion>
        <latitud>28.46727453160809</latitud>
        <longitud>-16.26099636627112</longitud>
        <numValoraciones>0</numValoraciones>
        <calificacionMedia>0.0</calificacionMedia>
        <url>http://localhost:8082/api/ciudades/a051bc07-a08b-4cbe-8295-0e6bac14a686/aparcamientos/628ca27c5d03cf4ffab21a0d</url>
    </aparcamientos>
    <aparcamientos>
        <id>628ca27c5d03cf4ffab21a0e</id>
        <direccion>CALLE PORLIER 45</direccion>
        <latitud>28.46712908408132</latitud>
        <longitud>-16.25934909813718</longitud>
        <numValoraciones>0</numValoraciones>
        <calificacionMedia>0.0</calificacionMedia>
        <url>http://localhost:8082/api/ciudades/a051bc07-a08b-4cbe-8295-0e6bac14a686/aparcamientos/628ca27c5d03cf4ffab21a0e</url>
    </aparcamientos>
    <aparcamientos>
        <id>628ca27c5d03cf4ffab21a0f</id>
        <direccion>CALLE PORLIER 53</direccion>
        <latitud>28.46716289468158</latitud>
        <longitud>-16.25974601525737</longitud>
        <numValoraciones>0</numValoraciones>
        <calificacionMedia>0.0</calificacionMedia>
        <url>http://localhost:8082/api/ciudades/a051bc07-a08b-4cbe-8295-0e6bac14a686/aparcamientos/628ca27c5d03cf4ffab21a0f</url>
    </aparcamientos>
    <aparcamientos>
        <id>628ca27c5d03cf4ffab21a10</id>
        <direccion>CALLE GENERAL SERRANO 6</direccion>
        <latitud>28.46641389053113</latitud>
        <longitud>-16.2565007814903</longitud>
        <numValoraciones>0</numValoraciones>
        <calificacionMedia>0.0</calificacionMedia>
        <url>http://localhost:8082/api/ciudades/a051bc07-a08b-4cbe-8295-0e6bac14a686/aparcamientos/628ca27c5d03cf4ffab21a10</url>
    </aparcamientos>
    <aparcamientos>
        <id>628ca27c5d03cf4ffab21a11</id>
        <direccion>CALLE RAMON Y CAJAL 49</direccion>
        <latitud>28.46640186263408</latitud>
        <longitud>-16.26096636825874</longitud>
        <numValoraciones>0</numValoraciones>
        <calificacionMedia>0.0</calificacionMedia>
        <url>http://localhost:8082/api/ciudades/a051bc07-a08b-4cbe-8295-0e6bac14a686/aparcamientos/628ca27c5d03cf4ffab21a11</url>
    </aparcamientos>
    <aparcamientos>
        <id>628ca27c5d03cf4ffab21a12</id>
        <direccion>CALLE RAMON Y CAJAL 49</direccion>
        <latitud>28.46640626298665</latitud>
        <longitud>-16.26101713700536</longitud>
        <numValoraciones>0</numValoraciones>
        <calificacionMedia>0.0</calificacionMedia>
        <url>http://localhost:8082/api/ciudades/a051bc07-a08b-4cbe-8295-0e6bac14a686/aparcamientos/628ca27c5d03cf4ffab21a12</url>
    </aparcamientos>
    <aparcamientos>
        <id>628ca27c5d03cf4ffab21a13</id>
        <direccion>CALLE ANSELMO J BENITEZ 2</direccion>
        <latitud>28.46779333353421</latitud>
        <longitud>-16.25967878323877</longitud>
        <numValoraciones>0</numValoraciones>
        <calificacionMedia>0.0</calificacionMedia>
        <url>http://localhost:8082/api/ciudades/a051bc07-a08b-4cbe-8295-0e6bac14a686/aparcamientos/628ca27c5d03cf4ffab21a13</url>
    </aparcamientos>
    <aparcamientos>
        <id>628ca27c5d03cf4ffab21a14</id>
        <direccion>CALLE ANSELMO J BENITEZ 2</direccion>
        <latitud>28.46779636751291</latitud>
        <longitud>-16.25967911746606</longitud>
        <numValoraciones>0</numValoraciones>
        <calificacionMedia>0.0</calificacionMedia>
        <url>http://localhost:8082/api/ciudades/a051bc07-a08b-4cbe-8295-0e6bac14a686/aparcamientos/628ca27c5d03cf4ffab21a14</url>
    </aparcamientos>
    <aparcamientos>
        <id>628ca27c5d03cf4ffab21a15</id>
        <direccion>CALLE CASTRO 16</direccion>
        <latitud>28.46811947520688</latitud>
        <longitud>-16.26033660156798</longitud>
        <numValoraciones>0</numValoraciones>
        <calificacionMedia>0.0</calificacionMedia>
        <url>http://localhost:8082/api/ciudades/a051bc07-a08b-4cbe-8295-0e6bac14a686/aparcamientos/628ca27c5d03cf4ffab21a15</url>
    </aparcamientos>
    <aparcamientos>
        <id>628ca27c5d03cf4ffab21a16</id>
        <direccion>CALLE BENAVIDES 65</direccion>
        <latitud>28.46653991862555</latitud>
        <longitud>-16.25932024468197</longitud>
        <numValoraciones>0</numValoraciones>
        <calificacionMedia>0.0</calificacionMedia>
        <url>http://localhost:8082/api/ciudades/a051bc07-a08b-4cbe-8295-0e6bac14a686/aparcamientos/628ca27c5d03cf4ffab21a16</url>
    </aparcamientos>
    <aparcamientos>
        <id>628ca27c5d03cf4ffab21a17</id>
        <direccion>CALLE BENAVIDES 49</direccion>
        <latitud>28.46739801437726</latitud>
        <longitud>-16.25922503092475</longitud>
        <numValoraciones>0</numValoraciones>
        <calificacionMedia>0.0</calificacionMedia>
        <url>http://localhost:8082/api/ciudades/a051bc07-a08b-4cbe-8295-0e6bac14a686/aparcamientos/628ca27c5d03cf4ffab21a17</url>
    </aparcamientos>
    <aparcamientos>
        <id>628ca27c5d03cf4ffab21a18</id>
        <direccion>CALLE SAN CRISTOBAL 16</direccion>
        <latitud>28.46873911165763</latitud>
        <longitud>-16.26405760522641</longitud>
        <numValoraciones>0</numValoraciones>
        <calificacionMedia>0.0</calificacionMedia>
        <url>http://localhost:8082/api/ciudades/a051bc07-a08b-4cbe-8295-0e6bac14a686/aparcamientos/628ca27c5d03cf4ffab21a18</url>
    </aparcamientos>
    <aparcamientos>
        <id>628ca27c5d03cf4ffab21a19</id>
        <direccion>CALLE ALVAREZ DE LUGO 30</direccion>
        <latitud>28.46845306025326</latitud>
        <longitud>-16.2579037345434</longitud>
        <numValoraciones>0</numValoraciones>
        <calificacionMedia>0.0</calificacionMedia>
        <url>http://localhost:8082/api/ciudades/a051bc07-a08b-4cbe-8295-0e6bac14a686/aparcamientos/628ca27c5d03cf4ffab21a19</url>
    </aparcamientos>
    <aparcamientos>
        <id>628ca27c5d03cf4ffab21a1a</id>
        <direccion>CALLE SANTIAGO CUADRADO 9</direccion>
        <latitud>28.46940459103299</latitud>
        <longitud>-16.26230153586759</longitud>
        <numValoraciones>0</numValoraciones>
        <calificacionMedia>0.0</calificacionMedia>
        <url>http://localhost:8082/api/ciudades/a051bc07-a08b-4cbe-8295-0e6bac14a686/aparcamientos/628ca27c5d03cf4ffab21a1a</url>
    </aparcamientos>
    <aparcamientos>
        <id>628ca27c5d03cf4ffab21a1b</id>
        <direccion>CALLE CALVO SOTELO 98</direccion>
        <latitud>28.47011346169465</latitud>
        <longitud>-16.26419459627465</longitud>
        <numValoraciones>0</numValoraciones>
        <calificacionMedia>0.0</calificacionMedia>
        <url>http://localhost:8082/api/ciudades/a051bc07-a08b-4cbe-8295-0e6bac14a686/aparcamientos/628ca27c5d03cf4ffab21a1b</url>
    </aparcamientos>
    <aparcamientos>
        <id>628ca27c5d03cf4ffab21a1c</id>
        <direccion>CALLE LUIS DE LA CRUZ 8</direccion>
        <latitud>28.46558648183121</latitud>
        <longitud>-16.26365388495791</longitud>
        <numValoraciones>0</numValoraciones>
        <calificacionMedia>0.0</calificacionMedia>
        <url>http://localhost:8082/api/ciudades/a051bc07-a08b-4cbe-8295-0e6bac14a686/aparcamientos/628ca27c5d03cf4ffab21a1c</url>
    </aparcamientos>
    <aparcamientos>
        <id>628ca27c5d03cf4ffab21a1d</id>
        <direccion>CALLE VELAZQUEZ 8</direccion>
        <latitud>28.46525466076428</latitud>
        <longitud>-16.26307033583494</longitud>
        <numValoraciones>0</numValoraciones>
        <calificacionMedia>0.0</calificacionMedia>
        <url>http://localhost:8082/api/ciudades/a051bc07-a08b-4cbe-8295-0e6bac14a686/aparcamientos/628ca27c5d03cf4ffab21a1d</url>
    </aparcamientos>
    <aparcamientos>
        <id>628ca27c5d03cf4ffab21a1e</id>
        <direccion>CALLE VELAZQUEZ 1</direccion>
        <latitud>28.46587595301075</latitud>
        <longitud>-16.26296993094887</longitud>
        <numValoraciones>0</numValoraciones>
        <calificacionMedia>0.0</calificacionMedia>
        <url>http://localhost:8082/api/ciudades/a051bc07-a08b-4cbe-8295-0e6bac14a686/aparcamientos/628ca27c5d03cf4ffab21a1e</url>
    </aparcamientos>
    <aparcamientos>
        <id>628ca27c5d03cf4ffab21a1f</id>
        <direccion>AVENIDA DE BELGICA 14</direccion>
        <latitud>28.464718694398</latitud>
        <longitud>-16.26433037598594</longitud>
        <numValoraciones>0</numValoraciones>
        <calificacionMedia>0.0</calificacionMedia>
        <url>http://localhost:8082/api/ciudades/a051bc07-a08b-4cbe-8295-0e6bac14a686/aparcamientos/628ca27c5d03cf4ffab21a1f</url>
    </aparcamientos>
    <aparcamientos>
        <id>628ca27c5d03cf4ffab21a20</id>
        <direccion>CALLE ZURBARAN 26</direccion>
        <latitud>28.46624762204099</latitud>
        <longitud>-16.26616982116604</longitud>
        <numValoraciones>0</numValoraciones>
        <calificacionMedia>0.0</calificacionMedia>
        <url>http://localhost:8082/api/ciudades/a051bc07-a08b-4cbe-8295-0e6bac14a686/aparcamientos/628ca27c5d03cf4ffab21a20</url>
    </aparcamientos>
    <aparcamientos>
        <id>628ca27c5d03cf4ffab21a21</id>
        <direccion>CALLE PROGRESO 12</direccion>
        <latitud>28.46578250714763</latitud>
        <longitud>-16.25757272756547</longitud>
        <numValoraciones>0</numValoraciones>
        <calificacionMedia>0.0</calificacionMedia>
        <url>http://localhost:8082/api/ciudades/a051bc07-a08b-4cbe-8295-0e6bac14a686/aparcamientos/628ca27c5d03cf4ffab21a21</url>
    </aparcamientos>
    <aparcamientos>
        <id>628ca27c5d03cf4ffab21a22</id>
        <direccion>CALLE PROGRESO 34</direccion>
        <latitud>28.46587156970786</latitud>
        <longitud>-16.25860027708438</longitud>
        <numValoraciones>0</numValoraciones>
        <calificacionMedia>0.0</calificacionMedia>
        <url>http://localhost:8082/api/ciudades/a051bc07-a08b-4cbe-8295-0e6bac14a686/aparcamientos/628ca27c5d03cf4ffab21a22</url>
    </aparcamientos>
    <aparcamientos>
        <id>628ca27c5d03cf4ffab21a23</id>
        <direccion>CALLE RAMON Y CAJAL 29</direccion>
        <latitud>28.46618846538863</latitud>
        <longitud>-16.25855764754815</longitud>
        <numValoraciones>0</numValoraciones>
        <calificacionMedia>0.0</calificacionMedia>
        <url>http://localhost:8082/api/ciudades/a051bc07-a08b-4cbe-8295-0e6bac14a686/aparcamientos/628ca27c5d03cf4ffab21a23</url>
    </aparcamientos>
    <aparcamientos>
        <id>628ca27c5d03cf4ffab21a24</id>
        <direccion>CALLE RAMON Y CAJAL 9</direccion>
        <latitud>28.466080265543</latitud>
        <longitud>-16.25730481187654</longitud>
        <numValoraciones>0</numValoraciones>
        <calificacionMedia>0.0</calificacionMedia>
        <url>http://localhost:8082/api/ciudades/a051bc07-a08b-4cbe-8295-0e6bac14a686/aparcamientos/628ca27c5d03cf4ffab21a24</url>
    </aparcamientos>
    <aparcamientos>
        <id>628ca27c5d03cf4ffab21a25</id>
        <direccion>CALLE LOPE DE VEGA 35</direccion>
        <latitud>28.4627119712577</latitud>
        <longitud>-16.25876257907263</longitud>
        <numValoraciones>0</numValoraciones>
        <calificacionMedia>0.0</calificacionMedia>
        <url>http://localhost:8082/api/ciudades/a051bc07-a08b-4cbe-8295-0e6bac14a686/aparcamientos/628ca27c5d03cf4ffab21a25</url>
    </aparcamientos>
    <aparcamientos>
        <id>628ca27c5d03cf4ffab21a26</id>
        <direccion>CALLE HERMANOS LOGMAN 3</direccion>
        <latitud>28.46309958069806</latitud>
        <longitud>-16.25460497032108</longitud>
        <numValoraciones>0</numValoraciones>
        <calificacionMedia>0.0</calificacionMedia>
        <url>http://localhost:8082/api/ciudades/a051bc07-a08b-4cbe-8295-0e6bac14a686/aparcamientos/628ca27c5d03cf4ffab21a26</url>
    </aparcamientos>
    <aparcamientos>
        <id>628ca27c5d03cf4ffab21a27</id>
        <direccion>CALLE TAJINASTE (BARRIO NUEVO) 22</direccion>
        <latitud>28.47272323228275</latitud>
        <longitud>-16.2692066739387</longitud>
        <numValoraciones>0</numValoraciones>
        <calificacionMedia>0.0</calificacionMedia>
        <url>http://localhost:8082/api/ciudades/a051bc07-a08b-4cbe-8295-0e6bac14a686/aparcamientos/628ca27c5d03cf4ffab21a27</url>
    </aparcamientos>
    <aparcamientos>
        <id>628ca27c5d03cf4ffab21a28</id>
        <direccion>CALLE RAMON Y CAJAL 3A</direccion>
        <latitud>28.46585628935863</latitud>
        <longitud>-16.25563783971451</longitud>
        <numValoraciones>0</numValoraciones>
        <calificacionMedia>0.0</calificacionMedia>
        <url>http://localhost:8082/api/ciudades/a051bc07-a08b-4cbe-8295-0e6bac14a686/aparcamientos/628ca27c5d03cf4ffab21a28</url>
    </aparcamientos>
    <aparcamientos>
        <id>628ca27c5d03cf4ffab21a29</id>
        <direccion>CALLE RAMON Y CAJAL 3A</direccion>
        <latitud>28.46583663072326</latitud>
        <longitud>-16.25553813981083</longitud>
        <numValoraciones>0</numValoraciones>
        <calificacionMedia>0.0</calificacionMedia>
        <url>http://localhost:8082/api/ciudades/a051bc07-a08b-4cbe-8295-0e6bac14a686/aparcamientos/628ca27c5d03cf4ffab21a29</url>
    </aparcamientos>
    <aparcamientos>
        <id>628ca27c5d03cf4ffab21a2a</id>
        <direccion>CALLE PI Y MARGALL 11</direccion>
        <latitud>28.46823259483255</latitud>
        <longitud>-16.25383283581538</longitud>
        <numValoraciones>0</numValoraciones>
        <calificacionMedia>0.0</calificacionMedia>
        <url>http://localhost:8082/api/ciudades/a051bc07-a08b-4cbe-8295-0e6bac14a686/aparcamientos/628ca27c5d03cf4ffab21a2a</url>
    </aparcamientos>
    <aparcamientos>
        <id>628ca27c5d03cf4ffab21a2b</id>
        <direccion>CALLE PI Y MARGALL 13</direccion>
        <latitud>28.46826276139415</latitud>
        <longitud>-16.25387162943441</longitud>
        <numValoraciones>0</numValoraciones>
        <calificacionMedia>0.0</calificacionMedia>
        <url>http://localhost:8082/api/ciudades/a051bc07-a08b-4cbe-8295-0e6bac14a686/aparcamientos/628ca27c5d03cf4ffab21a2b</url>
    </aparcamientos>
    <aparcamientos>
        <id>628ca27c5d03cf4ffab21a2c</id>
        <direccion>CALLE VILLALBA HERVAS 9</direccion>
        <latitud>28.46780643758875</latitud>
        <longitud>-16.24927892395783</longitud>
        <numValoraciones>0</numValoraciones>
        <calificacionMedia>0.0</calificacionMedia>
        <url>http://localhost:8082/api/ciudades/a051bc07-a08b-4cbe-8295-0e6bac14a686/aparcamientos/628ca27c5d03cf4ffab21a2c</url>
    </aparcamientos>
    <aparcamientos>
        <id>628ca27c5d03cf4ffab21a2d</id>
        <direccion>CALLE VILLALBA HERVAS 17</direccion>
        <latitud>28.46788129859767</latitud>
        <longitud>-16.24988464161076</longitud>
        <numValoraciones>0</numValoraciones>
        <calificacionMedia>0.0</calificacionMedia>
        <url>http://localhost:8082/api/ciudades/a051bc07-a08b-4cbe-8295-0e6bac14a686/aparcamientos/628ca27c5d03cf4ffab21a2d</url>
    </aparcamientos>
    <aparcamientos>
        <id>628ca27c5d03cf4ffab21a2e</id>
        <direccion>CALLE SAN FRANCISCO 45</direccion>
        <latitud>28.46987899367634</latitud>
        <longitud>-16.2485555754037</longitud>
        <numValoraciones>0</numValoraciones>
        <calificacionMedia>0.0</calificacionMedia>
        <url>http://localhost:8082/api/ciudades/a051bc07-a08b-4cbe-8295-0e6bac14a686/aparcamientos/628ca27c5d03cf4ffab21a2e</url>
    </aparcamientos>
    <aparcamientos>
        <id>628ca27c5d03cf4ffab21a2f</id>
        <direccion>CALLE IMELDO SERIS 49</direccion>
        <latitud>28.46689619912971</latitud>
        <longitud>-16.25246195309861</longitud>
        <numValoraciones>0</numValoraciones>
        <calificacionMedia>0.0</calificacionMedia>
        <url>http://localhost:8082/api/ciudades/a051bc07-a08b-4cbe-8295-0e6bac14a686/aparcamientos/628ca27c5d03cf4ffab21a2f</url>
    </aparcamientos>
    <aparcamientos>
        <id>628ca27c5d03cf4ffab21a30</id>
        <direccion>CALLE PI Y MARGALL 25</direccion>
        <latitud>28.46904567161396</latitud>
        <longitud>-16.25485866550936</longitud>
        <numValoraciones>0</numValoraciones>
        <calificacionMedia>0.0</calificacionMedia>
        <url>http://localhost:8082/api/ciudades/a051bc07-a08b-4cbe-8295-0e6bac14a686/aparcamientos/628ca27c5d03cf4ffab21a30</url>
    </aparcamientos>
    <aparcamientos>
        <id>628ca27c5d03cf4ffab21a31</id>
        <direccion>CALLE ROBAYNA 14</direccion>
        <latitud>28.46877187717396</latitud>
        <longitud>-16.25555590556134</longitud>
        <numValoraciones>0</numValoraciones>
        <calificacionMedia>0.0</calificacionMedia>
        <url>http://localhost:8082/api/ciudades/a051bc07-a08b-4cbe-8295-0e6bac14a686/aparcamientos/628ca27c5d03cf4ffab21a31</url>
    </aparcamientos>
    <aparcamientos>
        <id>628ca27c5d03cf4ffab21a32</id>
        <direccion>AVENIDA MARITIMA 4</direccion>
        <latitud>28.46446069376878</latitud>
        <longitud>-16.24763454701228</longitud>
        <numValoraciones>0</numValoraciones>
        <calificacionMedia>0.0</calificacionMedia>
        <url>http://localhost:8082/api/ciudades/a051bc07-a08b-4cbe-8295-0e6bac14a686/aparcamientos/628ca27c5d03cf4ffab21a32</url>
    </aparcamientos>
    <aparcamientos>
        <id>628ca27c5d03cf4ffab21a33</id>
        <direccion>CALLE SANTIAGO 6</direccion>
        <latitud>28.47060870832149</latitud>
        <longitud>-16.2506217346475</longitud>
        <numValoraciones>0</numValoraciones>
        <calificacionMedia>0.0</calificacionMedia>
        <url>http://localhost:8082/api/ciudades/a051bc07-a08b-4cbe-8295-0e6bac14a686/aparcamientos/628ca27c5d03cf4ffab21a33</url>
    </aparcamientos>
    <aparcamientos>
        <id>628ca27c5d03cf4ffab21a34</id>
        <direccion>CALLE PADRE ANCHIETA 2</direccion>
        <latitud>28.46376043275715</latitud>
        <longitud>-16.25328156943396</longitud>
        <numValoraciones>0</numValoraciones>
        <calificacionMedia>0.0</calificacionMedia>
        <url>http://localhost:8082/api/ciudades/a051bc07-a08b-4cbe-8295-0e6bac14a686/aparcamientos/628ca27c5d03cf4ffab21a34</url>
    </aparcamientos>
    <aparcamientos>
        <id>628ca27c5d03cf4ffab21a35</id>
        <direccion>CALLE GENERAL GUTIERREZ 3</direccion>
        <latitud>28.46582527404761</latitud>
        <longitud>-16.2480053916831</longitud>
        <numValoraciones>0</numValoraciones>
        <calificacionMedia>0.0</calificacionMedia>
        <url>http://localhost:8082/api/ciudades/a051bc07-a08b-4cbe-8295-0e6bac14a686/aparcamientos/628ca27c5d03cf4ffab21a35</url>
    </aparcamientos>
    <aparcamientos>
        <id>628ca27c5d03cf4ffab21a36</id>
        <direccion>CALLE GENERAL GUTIERREZ 3</direccion>
        <latitud>28.465866872094</latitud>
        <longitud>-16.24798370891326</longitud>
        <numValoraciones>0</numValoraciones>
        <calificacionMedia>0.0</calificacionMedia>
        <url>http://localhost:8082/api/ciudades/a051bc07-a08b-4cbe-8295-0e6bac14a686/aparcamientos/628ca27c5d03cf4ffab21a36</url>
    </aparcamientos>
    <aparcamientos>
        <id>628ca27c5d03cf4ffab21a37</id>
        <direccion>PLAZA DE ESPAÑA 2</direccion>
        <latitud>28.46620452456343</latitud>
        <longitud>-16.24737132679042</longitud>
        <numValoraciones>0</numValoraciones>
        <calificacionMedia>0.0</calificacionMedia>
        <url>http://localhost:8082/api/ciudades/a051bc07-a08b-4cbe-8295-0e6bac14a686/aparcamientos/628ca27c5d03cf4ffab21a37</url>
    </aparcamientos>
    <aparcamientos>
        <id>628ca27c5d03cf4ffab21a38</id>
        <direccion>CALLE LA X 3</direccion>
        <latitud>28.46691908489654</latitud>
        <longitud>-16.2554657872681</longitud>
        <numValoraciones>0</numValoraciones>
        <calificacionMedia>0.0</calificacionMedia>
        <url>http://localhost:8082/api/ciudades/a051bc07-a08b-4cbe-8295-0e6bac14a686/aparcamientos/628ca27c5d03cf4ffab21a38</url>
    </aparcamientos>
    <aparcamientos>
        <id>628ca27c5d03cf4ffab21a39</id>
        <direccion>CALLE DOCTOR MIGUEL LOPEZ GONZALEZ 1</direccion>
        <latitud>28.46616461774416</latitud>
        <longitud>-16.25378077444679</longitud>
        <numValoraciones>0</numValoraciones>
        <calificacionMedia>0.0</calificacionMedia>
        <url>http://localhost:8082/api/ciudades/a051bc07-a08b-4cbe-8295-0e6bac14a686/aparcamientos/628ca27c5d03cf4ffab21a39</url>
    </aparcamientos>
    <aparcamientos>
        <id>628ca27c5d03cf4ffab21a3a</id>
        <direccion>AVENIDA BRAVO MURILLO 2</direccion>
        <latitud>28.46616397402104</latitud>
        <longitud>-16.24739286181626</longitud>
        <numValoraciones>0</numValoraciones>
        <calificacionMedia>0.0</calificacionMedia>
        <url>http://localhost:8082/api/ciudades/a051bc07-a08b-4cbe-8295-0e6bac14a686/aparcamientos/628ca27c5d03cf4ffab21a3a</url>
    </aparcamientos>
    <aparcamientos>
        <id>628ca27c5d03cf4ffab21a3b</id>
        <direccion>CALLE PADRE ANCHIETA 45</direccion>
        <latitud>28.46388080726899</latitud>
        <longitud>-16.25639594225644</longitud>
        <numValoraciones>0</numValoraciones>
        <calificacionMedia>0.0</calificacionMedia>
        <url>http://localhost:8082/api/ciudades/a051bc07-a08b-4cbe-8295-0e6bac14a686/aparcamientos/628ca27c5d03cf4ffab21a3b</url>
    </aparcamientos>
    <aparcamientos>
        <id>628ca27c5d03cf4ffab21a3c</id>
        <direccion>CALLE HERMANOS LOGMAN 8</direccion>
        <latitud>28.46300975414587</latitud>
        <longitud>-16.25453513533179</longitud>
        <numValoraciones>0</numValoraciones>
        <calificacionMedia>0.0</calificacionMedia>
        <url>http://localhost:8082/api/ciudades/a051bc07-a08b-4cbe-8295-0e6bac14a686/aparcamientos/628ca27c5d03cf4ffab21a3c</url>
    </aparcamientos>
    <aparcamientos>
        <id>628ca27c5d03cf4ffab21a3d</id>
        <direccion>AVENIDA BRAVO MURILLO 4</direccion>
        <latitud>28.46300675274707</latitud>
        <longitud>-16.24918169178798</longitud>
        <numValoraciones>0</numValoraciones>
        <calificacionMedia>0.0</calificacionMedia>
